stop_id,stop_code,stop_name,stop_desc,stop_lat,stop_lon,zone_id,stop_url,location_type,parent_station,platform_code
0000101,,Zwijndrecht Dorp,,51.2191923,4.32571361,,,0,,
8015345,,Aachen Hbf (d),,50.7708300,6.10527700,,,0,,
8200100,,Luxembourg (l),,49.6000000,6.13333300,,,0,,
8200102,,Pfaffenthal-Kirchberg,,49.6191300,6.13285300,,,0,,
8200110,,Mersch (l),,49.7488900,6.10611100,,,0,,
8200120,,Ettelbruck (l),,49.8475000,6.10416700,,,0,,
8200128,,Michelau (l),,49.8972900,6.09149000,,,0,,
8200130,,Kautenbach (l),,49.9527800,6.02000000,,,0,,
8200132,,Wilwerwiltz (l),,49.9888900,5.99916700,,,0,,
8200133,,Drauffelt (l),,50.0177800,6.00611100,,,0,,
8200134,,Clervaux (l),,50.0547200,6.03138900,,,0,,
8200136,,Troisvierges (l),,50.1211100,6.00027800,,,0,,
8200510,,Bertrange Strassen (l),,49.6111100,6.05000000,,,0,,
8200516,,Mamer (l),,49.6258700,6.02013100,,,0,,
8200518,,Capellen (l),,49.6450000,5.99083300,,,0,,
8200520,,Kleinbettingen (l),,49.6463900,5.91638900,,,0,,
8200710,,Hollerich,,49.5951600,6.12093800,,,0,,
8200712,,Leudelange,,49.5871200,6.05930600,,,0,,
8200714,,Dippach-Reckange,,49.5725600,5.99526700,,,0,,
8200716,,Schouweiler,,49.5736400,5.96007600,,,0,,
8200718,,Bascharage-Sanem,,49.5583600,5.92374200,,,0,,
8200930,,Petange,,49.5542500,5.87868100,,,0,,
8200935,,Lamadeleine,,49.5533400,5.86133500,,,0,,
8200940,,Rodange (l),,49.5512800,5.84502500,,,0,,
8210014,,Mamer-Lycee (l),,49.6194000,6.02849500,,,0,,
8400058,,Amsterdam Cs (nl),,52.3500000,4.91666700,,,0,,
8400131,,Breda (nl),,51.5956800,4.78001700,,,0,,
8400219,,Eijsden (nl),,50.7721300,5.70979000,,,0,,
8400319,,'s Hertogenbosch (nl),,51.6904200,5.29427800,,,0,,
8400424,,Maastricht (nl),,50.8500000,5.70539200,,,0,,
8400426,,Maastricht Randwyck (nl),,50.8385000,5.71671200,,,0,,
8400526,,Roosendaal (nl),,51.5408300,4.45869200,,,0,,
8400530,,Rotterdam Cs (nl),,51.9166700,4.50000000,,,0,,
8400561,,Schiphol (nl),,52.3000000,4.75000000,,,0,,
8728105,,Croix L Allumette (f),,50.6757000,3.13380900,,,0,,
8728600,,Lille Flandres(f),,50.6333300,3.06666700,,,0,,
8728606,,Hellemmes (f),,50.6269400,3.10888800,,,0,,
8728654,,Tourcoing (f),,50.7166700,3.15000000,,,0,,
8728671,,Croix Wasquehal (f),,50.6666700,3.15000000,,,0,,
8728673,,Roubaix (f),,50.7000000,3.16666700,,,0,,
8728683,,Pont De Bois (f),,50.6241600,3.12750000,,,0,,
8728685,,Annappes (f),,50.6333300,3.15000000,,,0,,
8728686,,Ascq (f),,50.6166700,3.16666700,,,0,,
8728687,,Baisieux (f),,50.6000000,3.25000000,,,0,,
8728710,,Lezennes (f),,50.6166700,3.11666700,,,0,,
8729500,,Maubeuge (f),,50.2728900,3.96656600,,,0,,
S8811007,,Schaerbeek,,50.8785100,4.37864000,,,1,,
8811007_11      ,,Schaerbeek,,50.8785100,4.37864000,,,0,S8811007,11      
8811007_7       ,,Schaerbeek,,50.8785100,4.37864000,,,0,S8811007,7       
8811007_10      ,,Schaerbeek,,50.8785100,4.37864000,,,0,S8811007,10      
8811007_8       ,,Schaerbeek,,50.8785100,4.37864000,,,0,S8811007,8       
8811007_6       ,,Schaerbeek,,50.8785100,4.37864000,,,0,S8811007,6       
8811007_5       ,,Schaerbeek,,50.8785100,4.37864000,,,0,S8811007,5       
8811007_12      ,,Schaerbeek,,50.8785100,4.37864000,,,0,S8811007,12      
8811007_13      ,,Schaerbeek,,50.8785100,4.37864000,,,0,S8811007,13      
8811007_9       ,,Schaerbeek,,50.8785100,4.37864000,,,0,S8811007,9       
8811007_14      ,,Schaerbeek,,50.8785100,4.37864000,,,0,S8811007,14      
8811007_15      ,,Schaerbeek,,50.8785100,4.37864000,,,0,S8811007,15      
8811007_4       ,,Schaerbeek,,50.8785100,4.37864000,,,0,S8811007,4       
8811007_3       ,,Schaerbeek,,50.8785100,4.37864000,,,0,S8811007,3       
8811007,,Schaerbeek,,50.8785100,4.37864000,,,0,S8811007,
S8811106,,Evere,,50.8677800,4.40096300,,,1,,
8811106_2       ,,Evere,,50.8677800,4.40096300,,,0,S8811106,2       
8811106_1       ,,Evere,,50.8677800,4.40096300,,,0,S8811106,1       
8811106,,Evere,,50.8677800,4.40096300,,,0,S8811106,
S8811130,,Haren-Sud,,50.8896900,4.41535800,,,1,,
8811130_4       ,,Haren-Sud,,50.8896900,4.41535800,,,0,S8811130,4       
8811130_1       ,,Haren-Sud,,50.8896900,4.41535800,,,0,S8811130,1       
8811130_3       ,,Haren-Sud,,50.8896900,4.41535800,,,0,S8811130,3       
8811130,,Haren-Sud,,50.8896900,4.41535800,,,0,S8811130,
S8811148,,Buda,,50.9075000,4.41707500,,,1,,
8811148_1       ,,Buda,,50.9075000,4.41707500,,,0,S8811148,1       
8811148_2       ,,Buda,,50.9075000,4.41707500,,,0,S8811148,2       
8811148,,Buda,,50.9075000,4.41707500,,,0,S8811148,
S8811155,,Haren,,50.8888800,4.41998000,,,1,,
8811155_1       ,,Haren,,50.8888800,4.41998000,,,0,S8811155,1       
8811155_2       ,,Haren,,50.8888800,4.41998000,,,0,S8811155,2       
8811155,,Haren,,50.8888800,4.41998000,,,0,S8811155,
S8811163,,Bordet,,50.8777900,4.41002400,,,1,,
8811163_2       ,,Bordet,,50.8777900,4.41002400,,,0,S8811163,2       
8811163_1       ,,Bordet,,50.8777900,4.41002400,,,0,S8811163,1       
8811163,,Bordet,,50.8777900,4.41002400,,,0,S8811163,
S8811171,,Meiser,,50.8540700,4.39442400,,,1,,
8811171_2       ,,Meiser,,50.8540700,4.39442400,,,0,S8811171,2       
8811171_1       ,,Meiser,,50.8540700,4.39442400,,,0,S8811171,1       
8811171,,Meiser,,50.8540700,4.39442400,,,0,S8811171,
S8811189,,Vilvorde,,50.9245800,4.43282600,,,1,,
8811189_1       ,,Vilvorde,,50.9245800,4.43282600,,,0,S8811189,1       
8811189_2       ,,Vilvorde,,50.9245800,4.43282600,,,0,S8811189,2       
8811189_3       ,,Vilvorde,,50.9245800,4.43282600,,,0,S8811189,3       
8811189_4       ,,Vilvorde,,50.9245800,4.43282600,,,0,S8811189,4       
8811189_6       ,,Vilvorde,,50.9245800,4.43282600,,,0,S8811189,6       
8811189_5       ,,Vilvorde,,50.9245800,4.43282600,,,0,S8811189,5       
8811189,,Vilvorde,,50.9245800,4.43282600,,,0,S8811189,
S8811197,,Merode,,50.8392800,4.39893200,,,1,,
8811197_2       ,,Merode,,50.8392800,4.39893200,,,0,S8811197,2       
8811197_1       ,,Merode,,50.8392800,4.39893200,,,0,S8811197,1       
8811197,,Merode,,50.8392800,4.39893200,,,0,S8811197,
S8811205,,Delta,,50.8183600,4.40387100,,,1,,
8811205_1       ,,Delta,,50.8183600,4.40387100,,,0,S8811205,1       
8811205_2       ,,Delta,,50.8183600,4.40387100,,,0,S8811205,2       
8811205,,Delta,,50.8183600,4.40387100,,,0,S8811205,
S8811213,,Diegem,,50.8904800,4.44277300,,,1,,
8811213_4       ,,Diegem,,50.8904800,4.44277300,,,0,S8811213,4       
8811213_3       ,,Diegem,,50.8904800,4.44277300,,,0,S8811213,3       
8811213_1       ,,Diegem,,50.8904800,4.44277300,,,0,S8811213,1       
8811213_2       ,,Diegem,,50.8904800,4.44277300,,,0,S8811213,2       
8811213,,Diegem,,50.8904800,4.44277300,,,0,S8811213,
S8811221,,Zaventem,,50.8857200,4.46989000,,,1,,
8811221_4       ,,Zaventem,,50.8857200,4.46989000,,,0,S8811221,4       
8811221_3       ,,Zaventem,,50.8857200,4.46989000,,,0,S8811221,3       
8811221_1       ,,Zaventem,,50.8857200,4.46989000,,,0,S8811221,1       
8811221_2       ,,Zaventem,,50.8857200,4.46989000,,,0,S8811221,2       
8811221,,Zaventem,,50.8857200,4.46989000,,,0,S8811221,
S8811247,,Nossegem,,50.8833100,4.50611000,,,1,,
8811247_4       ,,Nossegem,,50.8833100,4.50611000,,,0,S8811247,4       
8811247_1       ,,Nossegem,,50.8833100,4.50611000,,,0,S8811247,1       
8811247_3       ,,Nossegem,,50.8833100,4.50611000,,,0,S8811247,3       
8811247,,Nossegem,,50.8833100,4.50611000,,,0,S8811247,
S8811254,,Kortenberg,,50.8930700,4.54330000,,,1,,
8811254_4       ,,Kortenberg,,50.8930700,4.54330000,,,0,S8811254,4       
8811254_1       ,,Kortenberg,,50.8930700,4.54330000,,,0,S8811254,1       
8811254_3       ,,Kortenberg,,50.8930700,4.54330000,,,0,S8811254,3       
8811254,,Kortenberg,,50.8930700,4.54330000,,,0,S8811254,
S8811262,,Erps-Kwerps,,50.8965100,4.58500000,,,1,,
8811262_4       ,,Erps-Kwerps,,50.8965100,4.58500000,,,0,S8811262,4       
8811262_1       ,,Erps-Kwerps,,50.8965100,4.58500000,,,0,S8811262,1       
8811262_3       ,,Erps-Kwerps,,50.8965100,4.58500000,,,0,S8811262,3       
8811262,,Erps-Kwerps,,50.8965100,4.58500000,,,0,S8811262,
S8811270,,Veltem,,50.9005200,4.63352000,,,1,,
8811270_4       ,,Veltem,,50.9005200,4.63352000,,,0,S8811270,4       
8811270_1       ,,Veltem,,50.9005200,4.63352000,,,0,S8811270,1       
8811270_3       ,,Veltem,,50.9005200,4.63352000,,,0,S8811270,3       
8811270,,Veltem,,50.9005200,4.63352000,,,0,S8811270,
S8811288,,Herent,,50.9035300,4.67219000,,,1,,
8811288_3       ,,Herent,,50.9035300,4.67219000,,,0,S8811288,3       
8811288_2       ,,Herent,,50.9035300,4.67219000,,,0,S8811288,2       
8811288_4       ,,Herent,,50.9035300,4.67219000,,,0,S8811288,4       
8811288_1       ,,Herent,,50.9035300,4.67219000,,,0,S8811288,1       
8811288,,Herent,,50.9035300,4.67219000,,,0,S8811288,
S8811304,,Bruxelles-Luxembourg,,50.8389400,4.37367600,,,1,,
8811304_1       ,,Bruxelles-Luxembourg,,50.8389400,4.37367600,,,0,S8811304,1       
8811304_5       ,,Bruxelles-Luxembourg,,50.8389400,4.37367600,,,0,S8811304,5       
8811304_3       ,,Bruxelles-Luxembourg,,50.8389400,4.37367600,,,0,S8811304,3       
8811304_2       ,,Bruxelles-Luxembourg,,50.8389400,4.37367600,,,0,S8811304,2       
8811304_4       ,,Bruxelles-Luxembourg,,50.8389400,4.37367600,,,0,S8811304,4       
8811304_6       ,,Bruxelles-Luxembourg,,50.8389400,4.37367600,,,0,S8811304,6       
8811304,,Bruxelles-Luxembourg,,50.8389400,4.37367600,,,0,S8811304,
S8811403,,Germoir,,50.8300000,4.37944500,,,1,,
8811403_1       ,,Germoir,,50.8300000,4.37944500,,,0,S8811403,1       
8811403_2       ,,Germoir,,50.8300000,4.37944500,,,0,S8811403,2       
8811403,,Germoir,,50.8300000,4.37944500,,,0,S8811403,
S8811411,,Etterbeek,,50.8221900,4.38951700,,,1,,
8811411_2       ,,Etterbeek,,50.8221900,4.38951700,,,0,S8811411,2       
8811411_1       ,,Etterbeek,,50.8221900,4.38951700,,,0,S8811411,1       
8811411_3       ,,Etterbeek,,50.8221900,4.38951700,,,0,S8811411,3       
8811411_4       ,,Etterbeek,,50.8221900,4.38951700,,,0,S8811411,4       
8811411,,Etterbeek,,50.8221900,4.38951700,,,0,S8811411,
S8811429,,Watermael,,50.8091700,4.39988500,,,1,,
8811429_4       ,,Watermael,,50.8091700,4.39988500,,,0,S8811429,4       
8811429_1       ,,Watermael,,50.8091700,4.39988500,,,0,S8811429,1       
8811429,,Watermael,,50.8091700,4.39988500,,,0,S8811429,
S8811437,,Boitsfort,,50.7947000,4.40811400,,,1,,
8811437_4       ,,Boitsfort,,50.7947000,4.40811400,,,0,S8811437,4       
8811437_3       ,,Boitsfort,,50.7947000,4.40811400,,,0,S8811437,3       
8811437,,Boitsfort,,50.7947000,4.40811400,,,0,S8811437,
S8811445,,Groenendaal,,50.7661000,4.44949000,,,1,,
8811445_4       ,,Groenendaal,,50.7661000,4.44949000,,,0,S8811445,4       
8811445_1       ,,Groenendaal,,50.7661000,4.44949000,,,0,S8811445,1       
8811445,,Groenendaal,,50.7661000,4.44949000,,,0,S8811445,
S8811460,,Hoeilaart,,50.7601600,4.46741000,,,1,,
8811460_4       ,,Hoeilaart,,50.7601600,4.46741000,,,0,S8811460,4       
8811460_1       ,,Hoeilaart,,50.7601600,4.46741000,,,0,S8811460,1       
8811460,,Hoeilaart,,50.7601600,4.46741000,,,0,S8811460,
S8811510,,La Hulpe,,50.7379600,4.49706000,,,1,,
8811510_3       ,,La Hulpe,,50.7379600,4.49706000,,,0,S8811510,3       
8811510_2       ,,La Hulpe,,50.7379600,4.49706000,,,0,S8811510,2       
8811510,,La Hulpe,,50.7379600,4.49706000,,,0,S8811510,
S8811528,,Genval,,50.7257000,4.51483400,,,1,,
8811528_4       ,,Genval,,50.7257000,4.51483400,,,0,S8811528,4       
8811528_3       ,,Genval,,50.7257000,4.51483400,,,0,S8811528,3       
8811528,,Genval,,50.7257000,4.51483400,,,0,S8811528,
S8811536,,Rixensart,,50.7114100,4.53286000,,,1,,
8811536_1       ,,Rixensart,,50.7114100,4.53286000,,,0,S8811536,1       
8811536_2       ,,Rixensart,,50.7114100,4.53286000,,,0,S8811536,2       
8811536,,Rixensart,,50.7114100,4.53286000,,,0,S8811536,
S8811544,,Profondsart,,50.6996500,4.54543500,,,1,,
8811544_1       ,,Profondsart,,50.6996500,4.54543500,,,0,S8811544,1       
8811544_2       ,,Profondsart,,50.6996500,4.54543500,,,0,S8811544,2       
8811544,,Profondsart,,50.6996500,4.54543500,,,0,S8811544,
S8811601,,Ottignies,,50.6736700,4.56936000,,,1,,
8811601_5       ,,Ottignies,,50.6736700,4.56936000,,,0,S8811601,5       
8811601_1       ,,Ottignies,,50.6736700,4.56936000,,,0,S8811601,1       
8811601_6       ,,Ottignies,,50.6736700,4.56936000,,,0,S8811601,6       
8811601_3       ,,Ottignies,,50.6736700,4.56936000,,,0,S8811601,3       
8811601_11      ,,Ottignies,,50.6736700,4.56936000,,,0,S8811601,11      
8811601_10      ,,Ottignies,,50.6736700,4.56936000,,,0,S8811601,10      
8811601_9       ,,Ottignies,,50.6736700,4.56936000,,,0,S8811601,9       
8811601_8       ,,Ottignies,,50.6736700,4.56936000,,,0,S8811601,8       
8811601_4       ,,Ottignies,,50.6736700,4.56936000,,,0,S8811601,4       
8811601_A       ,,Ottignies,,50.6736700,4.56936000,,,0,S8811601,A       
8811601,,Ottignies,,50.6736700,4.56936000,,,0,S8811601,
S8811635,,Limal,,50.6921400,4.57530000,,,1,,
8811635_2       ,,Limal,,50.6921400,4.57530000,,,0,S8811635,2       
8811635_1       ,,Limal,,50.6921400,4.57530000,,,0,S8811635,1       
8811635,,Limal,,50.6921400,4.57530000,,,0,S8811635,
S8811676,,Louvain-La-Neuve,,50.6698000,4.61574600,,,1,,
8811676_2       ,,Louvain-La-Neuve,,50.6698000,4.61574600,,,0,S8811676,2       
8811676_3       ,,Louvain-La-Neuve,,50.6698000,4.61574600,,,0,S8811676,3       
8811676_1       ,,Louvain-La-Neuve,,50.6698000,4.61574600,,,0,S8811676,1       
8811676,,Louvain-La-Neuve,,50.6698000,4.61574600,,,0,S8811676,
S8811718,,Bierges-Walibi,,50.7077700,4.59475000,,,1,,
8811718_2       ,,Bierges-Walibi,,50.7077700,4.59475000,,,0,S8811718,2       
8811718_1       ,,Bierges-Walibi,,50.7077700,4.59475000,,,0,S8811718,1       
8811718,,Bierges-Walibi,,50.7077700,4.59475000,,,0,S8811718,
S8811726,,Wavre,,50.7162700,4.60478000,,,1,,
8811726_2       ,,Wavre,,50.7162700,4.60478000,,,0,S8811726,2       
8811726_1       ,,Wavre,,50.7162700,4.60478000,,,0,S8811726,1       
8811726_3       ,,Wavre,,50.7162700,4.60478000,,,0,S8811726,3       
8811726,,Wavre,,50.7162700,4.60478000,,,0,S8811726,
S8811734,,Basse-Wavre,,50.7244200,4.62165300,,,1,,
8811734_2       ,,Basse-Wavre,,50.7244200,4.62165300,,,0,S8811734,2       
8811734_1       ,,Basse-Wavre,,50.7244200,4.62165300,,,0,S8811734,1       
8811734,,Basse-Wavre,,50.7244200,4.62165300,,,0,S8811734,
S8811742,,Gastuche,,50.7366500,4.64960000,,,1,,
8811742_2       ,,Gastuche,,50.7366500,4.64960000,,,0,S8811742,2       
8811742_1       ,,Gastuche,,50.7366500,4.64960000,,,0,S8811742,1       
8811742,,Gastuche,,50.7366500,4.64960000,,,0,S8811742,
S8811759,,Archennes,,50.7543500,4.66244100,,,1,,
8811759_2       ,,Archennes,,50.7543500,4.66244100,,,0,S8811759,2       
8811759_1       ,,Archennes,,50.7543500,4.66244100,,,0,S8811759,1       
8811759,,Archennes,,50.7543500,4.66244100,,,0,S8811759,
S8811767,,Florival,,50.7615000,4.65387000,,,1,,
8811767_2       ,,Florival,,50.7615000,4.65387000,,,0,S8811767,2       
8811767_1       ,,Florival,,50.7615000,4.65387000,,,0,S8811767,1       
8811767,,Florival,,50.7615000,4.65387000,,,0,S8811767,
S8811775,,Pecrot,,50.7785100,4.65148300,,,1,,
8811775_2       ,,Pecrot,,50.7785100,4.65148300,,,0,S8811775,2       
8811775_1       ,,Pecrot,,50.7785100,4.65148300,,,0,S8811775,1       
8811775,,Pecrot,,50.7785100,4.65148300,,,0,S8811775,
S8811817,,Ceroux-Mousty,,50.6599400,4.56904900,,,1,,
8811817_1       ,,Ceroux-Mousty,,50.6599400,4.56904900,,,0,S8811817,1       
8811817_2       ,,Ceroux-Mousty,,50.6599400,4.56904900,,,0,S8811817,2       
8811817,,Ceroux-Mousty,,50.6599400,4.56904900,,,0,S8811817,
S8811825,,Court-Saint-Etienne,,50.6455700,4.56582000,,,1,,
8811825_1       ,,Court-Saint-Etienne,,50.6455700,4.56582000,,,0,S8811825,1       
8811825_2       ,,Court-Saint-Etienne,,50.6455700,4.56582000,,,0,S8811825,2       
8811825,,Court-Saint-Etienne,,50.6455700,4.56582000,,,0,S8811825,
S8811916,,Bruxelles-Schuman,,50.8432800,4.38072500,,,1,,
8811916_1       ,,Bruxelles-Schuman,,50.8432800,4.38072500,,,0,S8811916,1       
8811916_4       ,,Bruxelles-Schuman,,50.8432800,4.38072500,,,0,S8811916,4       
8811916_3       ,,Bruxelles-Schuman,,50.8432800,4.38072500,,,0,S8811916,3       
8811916_2       ,,Bruxelles-Schuman,,50.8432800,4.38072500,,,0,S8811916,2       
8811916,,Bruxelles-Schuman,,50.8432800,4.38072500,,,0,S8811916,
S8811940,,Anderlecht,,50.8179000,4.29180000,,,1,,
8811940_1       ,,Anderlecht,,50.8179000,4.29180000,,,0,S8811940,1       
8811940_4       ,,Anderlecht,,50.8179000,4.29180000,,,0,S8811940,4       
8811940,,Anderlecht,,50.8179000,4.29180000,,,0,S8811940,
S8812005,,Bruxelles-Nord,,50.8596600,4.36085000,,,1,,
8812005_7       ,,Bruxelles-Nord,,50.8596600,4.36085000,,,0,S8812005,7       
8812005_6       ,,Bruxelles-Nord,,50.8596600,4.36085000,,,0,S8812005,6       
8812005_9       ,,Bruxelles-Nord,,50.8596600,4.36085000,,,0,S8812005,9       
8812005_10      ,,Bruxelles-Nord,,50.8596600,4.36085000,,,0,S8812005,10      
8812005_11      ,,Bruxelles-Nord,,50.8596600,4.36085000,,,0,S8812005,11      
8812005_12      ,,Bruxelles-Nord,,50.8596600,4.36085000,,,0,S8812005,12      
8812005_5       ,,Bruxelles-Nord,,50.8596600,4.36085000,,,0,S8812005,5       
8812005_2       ,,Bruxelles-Nord,,50.8596600,4.36085000,,,0,S8812005,2       
8812005_8       ,,Bruxelles-Nord,,50.8596600,4.36085000,,,0,S8812005,8       
8812005_3       ,,Bruxelles-Nord,,50.8596600,4.36085000,,,0,S8812005,3       
8812005_4       ,,Bruxelles-Nord,,50.8596600,4.36085000,,,0,S8812005,4       
8812005_1       ,,Bruxelles-Nord,,50.8596600,4.36085000,,,0,S8812005,1       
8812005,,Bruxelles-Nord,,50.8596600,4.36085000,,,0,S8812005,
S8812013,,Simonis,,50.8636400,4.32898200,,,1,,
8812013_1       ,,Simonis,,50.8636400,4.32898200,,,0,S8812013,1       
8812013_2       ,,Simonis,,50.8636400,4.32898200,,,0,S8812013,2       
8812013,,Simonis,,50.8636400,4.32898200,,,0,S8812013,
S8812021,,Bockstael,,50.8794300,4.34851000,,,1,,
8812021_2       ,,Bockstael,,50.8794300,4.34851000,,,0,S8812021,2       
8812021_1       ,,Bockstael,,50.8794300,4.34851000,,,0,S8812021,1       
8812021,,Bockstael,,50.8794300,4.34851000,,,0,S8812021,
S8812047,,Jette,,50.8808300,4.32621800,,,1,,
8812047_1       ,,Jette,,50.8808300,4.32621800,,,0,S8812047,1       
8812047_2       ,,Jette,,50.8808300,4.32621800,,,0,S8812047,2       
8812047_3       ,,Jette,,50.8808300,4.32621800,,,0,S8812047,3       
8812047_4       ,,Jette,,50.8808300,4.32621800,,,0,S8812047,4       
8812047,,Jette,,50.8808300,4.32621800,,,0,S8812047,
S8812062,,Zellik,,50.8900300,4.27454600,,,1,,
8812062_1       ,,Zellik,,50.8900300,4.27454600,,,0,S8812062,1       
8812062_2       ,,Zellik,,50.8900300,4.27454600,,,0,S8812062,2       
8812062,,Zellik,,50.8900300,4.27454600,,,0,S8812062,
S8812070,,Asse,,50.9064900,4.20798800,,,1,,
8812070_1       ,,Asse,,50.9064900,4.20798800,,,0,S8812070,1       
8812070_2       ,,Asse,,50.9064900,4.20798800,,,0,S8812070,2       
8812070,,Asse,,50.9064900,4.20798800,,,0,S8812070,
S8812112,,Mollem,,50.9334800,4.21696700,,,1,,
8812112_1       ,,Mollem,,50.9334800,4.21696700,,,0,S8812112,1       
8812112_2       ,,Mollem,,50.9334800,4.21696700,,,0,S8812112,2       
8812112,,Mollem,,50.9334800,4.21696700,,,0,S8812112,
S8812120,,Merchtem,,50.9549500,4.22271900,,,1,,
8812120_2       ,,Merchtem,,50.9549500,4.22271900,,,0,S8812120,2       
8812120_1       ,,Merchtem,,50.9549500,4.22271900,,,0,S8812120,1       
8812120,,Merchtem,,50.9549500,4.22271900,,,0,S8812120,
S8812146,,Opwijk,,50.9747800,4.18731700,,,1,,
8812146_1       ,,Opwijk,,50.9747800,4.18731700,,,0,S8812146,1       
8812146_3       ,,Opwijk,,50.9747800,4.18731700,,,0,S8812146,3       
8812146_2       ,,Opwijk,,50.9747800,4.18731700,,,0,S8812146,2       
8812146,,Opwijk,,50.9747800,4.18731700,,,0,S8812146,
S8812153,,Heizijde,,50.9896000,4.15617400,,,1,,
8812153_1       ,,Heizijde,,50.9896000,4.15617400,,,0,S8812153,1       
8812153_2       ,,Heizijde,,50.9896000,4.15617400,,,0,S8812153,2       
8812153,,Heizijde,,50.9896000,4.15617400,,,0,S8812153,
S8812161,,Lebbeke,,51.0050100,4.13437200,,,1,,
8812161_1       ,,Lebbeke,,51.0050100,4.13437200,,,0,S8812161,1       
8812161_2       ,,Lebbeke,,51.0050100,4.13437200,,,0,S8812161,2       
8812161,,Lebbeke,,51.0050100,4.13437200,,,0,S8812161,
S8812211,,Berchem-Sainte-Agathe,,50.8726300,4.28989200,,,1,,
8812211_2       ,,Berchem-Sainte-Agathe,,50.8726300,4.28989200,,,0,S8812211,2       
8812211_1       ,,Berchem-Sainte-Agathe,,50.8726300,4.28989200,,,0,S8812211,1       
8812211,,Berchem-Sainte-Agathe,,50.8726300,4.28989200,,,0,S8812211,
S8812229,,Groot-Bijgaarden,,50.8683400,4.27354200,,,1,,
8812229_2       ,,Groot-Bijgaarden,,50.8683400,4.27354200,,,0,S8812229,2       
8812229_1       ,,Groot-Bijgaarden,,50.8683400,4.27354200,,,0,S8812229,1       
8812229,,Groot-Bijgaarden,,50.8683400,4.27354200,,,0,S8812229,
S8812237,,Dilbeek,,50.8667300,4.24339000,,,1,,
8812237_1       ,,Dilbeek,,50.8667300,4.24339000,,,0,S8812237,1       
8812237_2       ,,Dilbeek,,50.8667300,4.24339000,,,0,S8812237,2       
8812237,,Dilbeek,,50.8667300,4.24339000,,,0,S8812237,
S8812245,,Sint-Martens-Bodegem,,50.8671600,4.20508000,,,1,,
8812245_2       ,,Sint-Martens-Bodegem,,50.8671600,4.20508000,,,0,S8812245,2       
8812245_1       ,,Sint-Martens-Bodegem,,50.8671600,4.20508000,,,0,S8812245,1       
8812245,,Sint-Martens-Bodegem,,50.8671600,4.20508000,,,0,S8812245,
S8812252,,Ternat,,50.8745200,4.16534000,,,1,,
8812252_3       ,,Ternat,,50.8745200,4.16534000,,,0,S8812252,3       
8812252_1       ,,Ternat,,50.8745200,4.16534000,,,0,S8812252,1       
8812252_2       ,,Ternat,,50.8745200,4.16534000,,,0,S8812252,2       
8812252,,Ternat,,50.8745200,4.16534000,,,0,S8812252,
S8812260,,Essene Lombeek,,50.8824500,4.11517000,,,1,,
8812260_2       ,,Essene Lombeek,,50.8824500,4.11517000,,,0,S8812260,2       
8812260_1       ,,Essene Lombeek,,50.8824500,4.11517000,,,0,S8812260,1       
8812260,,Essene Lombeek,,50.8824500,4.11517000,,,0,S8812260,
S8813003,,Bruxelles-Central,,50.8456500,4.35680400,,,1,,
8813003_1       ,,Bruxelles-Central,,50.8456500,4.35680400,,,0,S8813003,1       
8813003_2       ,,Bruxelles-Central,,50.8456500,4.35680400,,,0,S8813003,2       
8813003_5       ,,Bruxelles-Central,,50.8456500,4.35680400,,,0,S8813003,5       
8813003_6       ,,Bruxelles-Central,,50.8456500,4.35680400,,,0,S8813003,6       
8813003_4       ,,Bruxelles-Central,,50.8456500,4.35680400,,,0,S8813003,4       
8813003_3       ,,Bruxelles-Central,,50.8456500,4.35680400,,,0,S8813003,3       
8813003,,Bruxelles-Central,,50.8456500,4.35680400,,,0,S8813003,
S8813037,,Bruxelles-Chapelle,,50.8411300,4.34787000,,,1,,
8813037_5       ,,Bruxelles-Chapelle,,50.8411300,4.34787000,,,0,S8813037,5       
8813037_6       ,,Bruxelles-Chapelle,,50.8411300,4.34787000,,,0,S8813037,6       
8813037,,Bruxelles-Chapelle,,50.8411300,4.34787000,,,0,S8813037,
S8813045,,Bruxelles-Congres,,50.8520700,4.36205100,,,1,,
8813045_5       ,,Bruxelles-Congres,,50.8520700,4.36205100,,,0,S8813045,5       
8813045_6       ,,Bruxelles-Congres,,50.8520700,4.36205100,,,0,S8813045,6       
8813045,,Bruxelles-Congres,,50.8520700,4.36205100,,,0,S8813045,
S8814001,,Bruxelles-Midi,,50.8357100,4.33653000,,,1,,
8814001_21      ,,Bruxelles-Midi,,50.8357100,4.33653000,,,0,S8814001,21      
8814001_14      ,,Bruxelles-Midi,,50.8357100,4.33653000,,,0,S8814001,14      
8814001_16      ,,Bruxelles-Midi,,50.8357100,4.33653000,,,0,S8814001,16      
8814001_18      ,,Bruxelles-Midi,,50.8357100,4.33653000,,,0,S8814001,18      
8814001_13      ,,Bruxelles-Midi,,50.8357100,4.33653000,,,0,S8814001,13      
8814001_12      ,,Bruxelles-Midi,,50.8357100,4.33653000,,,0,S8814001,12      
8814001_15      ,,Bruxelles-Midi,,50.8357100,4.33653000,,,0,S8814001,15      
8814001_8       ,,Bruxelles-Midi,,50.8357100,4.33653000,,,0,S8814001,8       
8814001_9       ,,Bruxelles-Midi,,50.8357100,4.33653000,,,0,S8814001,9       
8814001_11      ,,Bruxelles-Midi,,50.8357100,4.33653000,,,0,S8814001,11      
8814001_17      ,,Bruxelles-Midi,,50.8357100,4.33653000,,,0,S8814001,17      
8814001_19      ,,Bruxelles-Midi,,50.8357100,4.33653000,,,0,S8814001,19      
8814001_20      ,,Bruxelles-Midi,,50.8357100,4.33653000,,,0,S8814001,20      
8814001_10      ,,Bruxelles-Midi,,50.8357100,4.33653000,,,0,S8814001,10      
8814001_7       ,,Bruxelles-Midi,,50.8357100,4.33653000,,,0,S8814001,7       
8814001_3       ,,Bruxelles-Midi,,50.8357100,4.33653000,,,0,S8814001,3       
8814001_6       ,,Bruxelles-Midi,,50.8357100,4.33653000,,,0,S8814001,6       
8814001_4       ,,Bruxelles-Midi,,50.8357100,4.33653000,,,0,S8814001,4       
8814001_5       ,,Bruxelles-Midi,,50.8357100,4.33653000,,,0,S8814001,5       
8814001,,Bruxelles-Midi,,50.8357100,4.33653000,,,0,S8814001,
S8814118,,Forest-Est,,50.8102000,4.32094000,,,1,,
8814118_2       ,,Forest-Est,,50.8102000,4.32094000,,,0,S8814118,2       
8814118_1       ,,Forest-Est,,50.8102000,4.32094000,,,0,S8814118,1       
8814118,,Forest-Est,,50.8102000,4.32094000,,,0,S8814118,
S8814126,,Uccle-Stalle,,50.8024100,4.32390000,,,1,,
8814126_2       ,,Uccle-Stalle,,50.8024100,4.32390000,,,0,S8814126,2       
8814126_1       ,,Uccle-Stalle,,50.8024100,4.32390000,,,0,S8814126,1       
8814126,,Uccle-Stalle,,50.8024100,4.32390000,,,0,S8814126,
S8814134,,Uccle-Calevoet,,50.7917500,4.33221100,,,1,,
8814134_2       ,,Uccle-Calevoet,,50.7917500,4.33221100,,,0,S8814134,2       
8814134_1       ,,Uccle-Calevoet,,50.7917500,4.33221100,,,0,S8814134,1       
8814134,,Uccle-Calevoet,,50.7917500,4.33221100,,,0,S8814134,
S8814142,,Linkebeek,,50.7736900,4.33943400,,,1,,
8814142_2       ,,Linkebeek,,50.7736900,4.33943400,,,0,S8814142,2       
8814142_1       ,,Linkebeek,,50.7736900,4.33943400,,,0,S8814142,1       
8814142,,Linkebeek,,50.7736900,4.33943400,,,0,S8814142,
S8814159,,Holleken,,50.7676300,4.35395600,,,1,,
8814159_2       ,,Holleken,,50.7676300,4.35395600,,,0,S8814159,2       
8814159_1       ,,Holleken,,50.7676300,4.35395600,,,0,S8814159,1       
8814159,,Holleken,,50.7676300,4.35395600,,,0,S8814159,
S8814167,,Rhode-Saint-Genese,,50.7478100,4.36200100,,,1,,
8814167_2       ,,Rhode-Saint-Genese,,50.7478100,4.36200100,,,0,S8814167,2       
8814167_1       ,,Rhode-Saint-Genese,,50.7478100,4.36200100,,,0,S8814167,1       
8814167,,Rhode-Saint-Genese,,50.7478100,4.36200100,,,0,S8814167,
S8814175,,De Hoek,,50.7388100,4.37071300,,,1,,
8814175_2       ,,De Hoek,,50.7388100,4.37071300,,,0,S8814175,2       
8814175_1       ,,De Hoek,,50.7388100,4.37071300,,,0,S8814175,1       
8814175,,De Hoek,,50.7388100,4.37071300,,,0,S8814175,
S8814209,,Nivelles,,50.5996400,4.33506500,,,1,,
8814209_5       ,,Nivelles,,50.5996400,4.33506500,,,0,S8814209,5       
8814209_6       ,,Nivelles,,50.5996400,4.33506500,,,0,S8814209,6       
8814209_3       ,,Nivelles,,50.5996400,4.33506500,,,0,S8814209,3       
8814209_2       ,,Nivelles,,50.5996400,4.33506500,,,0,S8814209,2       
8814209_1       ,,Nivelles,,50.5996400,4.33506500,,,0,S8814209,1       
8814209_4       ,,Nivelles,,50.5996400,4.33506500,,,0,S8814209,4       
8814209,,Nivelles,,50.5996400,4.33506500,,,0,S8814209,
S8814241,,Lillois,,50.6454200,4.36536900,,,1,,
8814241_1       ,,Lillois,,50.6454200,4.36536900,,,0,S8814241,1       
8814241_2       ,,Lillois,,50.6454200,4.36536900,,,0,S8814241,2       
8814241,,Lillois,,50.6454200,4.36536900,,,0,S8814241,
S8814258,,Braine-L Alleud,,50.6847800,4.37553000,,,1,,
8814258_1       ,,Braine-L Alleud,,50.6847800,4.37553000,,,0,S8814258,1       
8814258_2       ,,Braine-L Alleud,,50.6847800,4.37553000,,,0,S8814258,2       
8814258_3       ,,Braine-L Alleud,,50.6847800,4.37553000,,,0,S8814258,3       
8814258_4       ,,Braine-L Alleud,,50.6847800,4.37553000,,,0,S8814258,4       
8814258,,Braine-L Alleud,,50.6847800,4.37553000,,,0,S8814258,
S8814266,,Waterloo,,50.7154200,4.38348500,,,1,,
8814266_2       ,,Waterloo,,50.7154200,4.38348500,,,0,S8814266,2       
8814266_1       ,,Waterloo,,50.7154200,4.38348500,,,0,S8814266,1       
8814266,,Waterloo,,50.7154200,4.38348500,,,0,S8814266,
S8814308,,Hal,,50.7339300,4.24063300,,,1,,
8814308_2       ,,Hal,,50.7339300,4.24063300,,,0,S8814308,2       
8814308_3       ,,Hal,,50.7339300,4.24063300,,,0,S8814308,3       
8814308_5       ,,Hal,,50.7339300,4.24063300,,,0,S8814308,5       
8814308_4       ,,Hal,,50.7339300,4.24063300,,,0,S8814308,4       
8814308_1       ,,Hal,,50.7339300,4.24063300,,,0,S8814308,1       
8814308,,Hal,,50.7339300,4.24063300,,,0,S8814308,
S8814332,,Lembeek,,50.7151100,4.22158000,,,1,,
8814332_2       ,,Lembeek,,50.7151100,4.22158000,,,0,S8814332,2       
8814332_1       ,,Lembeek,,50.7151100,4.22158000,,,0,S8814332,1       
8814332,,Lembeek,,50.7151100,4.22158000,,,0,S8814332,
S8814340,,Buizingen,,50.7515800,4.25856000,,,1,,
8814340_2       ,,Buizingen,,50.7515800,4.25856000,,,0,S8814340,2       
8814340_1       ,,Buizingen,,50.7515800,4.25856000,,,0,S8814340,1       
8814340_3       ,,Buizingen,,50.7515800,4.25856000,,,0,S8814340,3       
8814340,,Buizingen,,50.7515800,4.25856000,,,0,S8814340,
S8814357,,Lot,,50.7663600,4.27370000,,,1,,
8814357_2       ,,Lot,,50.7663600,4.27370000,,,0,S8814357,2       
8814357_1       ,,Lot,,50.7663600,4.27370000,,,0,S8814357,1       
8814357_3       ,,Lot,,50.7663600,4.27370000,,,0,S8814357,3       
8814357,,Lot,,50.7663600,4.27370000,,,0,S8814357,
S8814365,,Ruisbroek,,50.7918300,4.29533000,,,1,,
8814365_2       ,,Ruisbroek,,50.7918300,4.29533000,,,0,S8814365,2       
8814365_1       ,,Ruisbroek,,50.7918300,4.29533000,,,0,S8814365,1       
8814365,,Ruisbroek,,50.7918300,4.29533000,,,0,S8814365,
S8814373,,Forest-Midi,,50.8092200,4.30916700,,,1,,
8814373_2       ,,Forest-Midi,,50.8092200,4.30916700,,,0,S8814373,2       
8814373_1       ,,Forest-Midi,,50.8092200,4.30916700,,,0,S8814373,1       
8814373,,Forest-Midi,,50.8092200,4.30916700,,,0,S8814373,
S8814415,,Huizingen,,50.7519000,4.26648500,,,1,,
8814415_2       ,,Huizingen,,50.7519000,4.26648500,,,0,S8814415,2       
8814415_1       ,,Huizingen,,50.7519000,4.26648500,,,0,S8814415,1       
8814415,,Huizingen,,50.7519000,4.26648500,,,0,S8814415,
S8814423,,Beersel,,50.7666100,4.30260300,,,1,,
8814423_2       ,,Beersel,,50.7666100,4.30260300,,,0,S8814423,2       
8814423_1       ,,Beersel,,50.7666100,4.30260300,,,0,S8814423,1       
8814423,,Beersel,,50.7666100,4.30260300,,,0,S8814423,
S8814431,,Moensberg,,50.7783200,4.33072900,,,1,,
8814431_2       ,,Moensberg,,50.7783200,4.33072900,,,0,S8814431,2       
8814431_1       ,,Moensberg,,50.7783200,4.33072900,,,0,S8814431,1       
8814431,,Moensberg,,50.7783200,4.33072900,,,0,S8814431,
S8814449,,Saint-Job,,50.7944100,4.36275800,,,1,,
8814449_2       ,,Saint-Job,,50.7944100,4.36275800,,,0,S8814449,2       
8814449_1       ,,Saint-Job,,50.7944100,4.36275800,,,0,S8814449,1       
8814449,,Saint-Job,,50.7944100,4.36275800,,,0,S8814449,
S8814456,,Boondael,,50.8013600,4.39308100,,,1,,
8814456_2       ,,Boondael,,50.8013600,4.39308100,,,0,S8814456,2       
8814456_1       ,,Boondael,,50.8013600,4.39308100,,,0,S8814456,1       
8814456,,Boondael,,50.8013600,4.39308100,,,0,S8814456,
S8814464,,Vivier D Oie,,50.7961500,4.37405000,,,1,,
8814464_2       ,,Vivier D Oie,,50.7961500,4.37405000,,,0,S8814464,2       
8814464_1       ,,Vivier D Oie,,50.7961500,4.37405000,,,0,S8814464,1       
8814464,,Vivier D Oie,,50.7961500,4.37405000,,,0,S8814464,
S8814472,,Arcades,,50.8099200,4.39854000,,,1,,
8814472_2       ,,Arcades,,50.8099200,4.39854000,,,0,S8814472,2       
8814472_1       ,,Arcades,,50.8099200,4.39854000,,,0,S8814472,1       
8814472,,Arcades,,50.8099200,4.39854000,,,0,S8814472,
S8815016,,Tour Et Taxis,,50.8728000,4.34210500,,,1,,
8815016_1       ,,Tour Et Taxis,,50.8728000,4.34210500,,,0,S8815016,1       
8815016_2       ,,Tour Et Taxis,,50.8728000,4.34210500,,,0,S8815016,2       
8815016,,Tour Et Taxis,,50.8728000,4.34210500,,,0,S8815016,
S8815040,,Bruxelles-Ouest,,50.8485600,4.32104000,,,1,,
8815040_1       ,,Bruxelles-Ouest,,50.8485600,4.32104000,,,0,S8815040,1       
8815040_2       ,,Bruxelles-Ouest,,50.8485600,4.32104000,,,0,S8815040,2       
8815040,,Bruxelles-Ouest,,50.8485600,4.32104000,,,0,S8815040,
S8819406,,Brussels Airport - Zaventem,,50.8964600,4.48207200,,,1,,
8819406_2       ,,Brussels Airport - Zaventem,,50.8964600,4.48207200,,,0,S8819406,2       
8819406_1       ,,Brussels Airport - Zaventem,,50.8964600,4.48207200,,,0,S8819406,1       
8819406_3       ,,Brussels Airport - Zaventem,,50.8964600,4.48207200,,,0,S8819406,3       
8819406,,Brussels Airport - Zaventem,,50.8964600,4.48207200,,,0,S8819406,
S8821006,,Anvers-Central,,51.2172000,4.42109800,,,1,,
8821006_2       ,,Anvers-Central,,51.2172000,4.42109800,,,0,S8821006,2       
8821006_13      ,,Anvers-Central,,51.2172000,4.42109800,,,0,S8821006,13      
8821006_5       ,,Anvers-Central,,51.2172000,4.42109800,,,0,S8821006,5       
8821006_6       ,,Anvers-Central,,51.2172000,4.42109800,,,0,S8821006,6       
8821006_3       ,,Anvers-Central,,51.2172000,4.42109800,,,0,S8821006,3       
8821006_21      ,,Anvers-Central,,51.2172000,4.42109800,,,0,S8821006,21      
8821006_24      ,,Anvers-Central,,51.2172000,4.42109800,,,0,S8821006,24      
8821006_23      ,,Anvers-Central,,51.2172000,4.42109800,,,0,S8821006,23      
8821006_4       ,,Anvers-Central,,51.2172000,4.42109800,,,0,S8821006,4       
8821006_1       ,,Anvers-Central,,51.2172000,4.42109800,,,0,S8821006,1       
8821006_14      ,,Anvers-Central,,51.2172000,4.42109800,,,0,S8821006,14      
8821006_12      ,,Anvers-Central,,51.2172000,4.42109800,,,0,S8821006,12      
8821006_11      ,,Anvers-Central,,51.2172000,4.42109800,,,0,S8821006,11      
8821006_22      ,,Anvers-Central,,51.2172000,4.42109800,,,0,S8821006,22      
8821006,,Anvers-Central,,51.2172000,4.42109800,,,0,S8821006,
8821022,,Anvers-Est,,51.2073600,4.43639500,,,0,,
8821030,,Anvers-Dam,,51.2319900,4.42623800,,,0,,
S8821063,,Anvers-Luchtbal,,51.2441300,4.42503300,,,1,,
8821063_1       ,,Anvers-Luchtbal,,51.2441300,4.42503300,,,0,S8821063,1       
8821063_2       ,,Anvers-Luchtbal,,51.2441300,4.42503300,,,0,S8821063,2       
8821063,,Anvers-Luchtbal,,51.2441300,4.42503300,,,0,S8821063,
S8821071,,Ekeren,,51.2816300,4.43415300,,,1,,
8821071_1       ,,Ekeren,,51.2816300,4.43415300,,,0,S8821071,1       
8821071_2       ,,Ekeren,,51.2816300,4.43415300,,,0,S8821071,2       
8821071,,Ekeren,,51.2816300,4.43415300,,,0,S8821071,
S8821089,,Anvers-Noorderdokken,,51.2616400,4.42791000,,,1,,
8821089_1       ,,Anvers-Noorderdokken,,51.2616400,4.42791000,,,0,S8821089,1       
8821089_2       ,,Anvers-Noorderdokken,,51.2616400,4.42791000,,,0,S8821089,2       
8821089,,Anvers-Noorderdokken,,51.2616400,4.42791000,,,0,S8821089,
S8821105,,Noorderkempen (brecht),,51.3568300,4.63220000,,,1,,
8821105_1       ,,Noorderkempen (brecht),,51.3568300,4.63220000,,,0,S8821105,1       
8821105_2       ,,Noorderkempen (brecht),,51.3568300,4.63220000,,,0,S8821105,2       
8821105,,Noorderkempen (brecht),,51.3568300,4.63220000,,,0,S8821105,
S8821121,,Anvers-Berchem,,51.1992300,4.43221900,,,1,,
8821121_7       ,,Anvers-Berchem,,51.1992300,4.43221900,,,0,S8821121,7       
8821121_5       ,,Anvers-Berchem,,51.1992300,4.43221900,,,0,S8821121,5       
8821121_8       ,,Anvers-Berchem,,51.1992300,4.43221900,,,0,S8821121,8       
8821121_6       ,,Anvers-Berchem,,51.1992300,4.43221900,,,0,S8821121,6       
8821121_10      ,,Anvers-Berchem,,51.1992300,4.43221900,,,0,S8821121,10      
8821121_9       ,,Anvers-Berchem,,51.1992300,4.43221900,,,0,S8821121,9       
8821121_2       ,,Anvers-Berchem,,51.1992300,4.43221900,,,0,S8821121,2       
8821121_3       ,,Anvers-Berchem,,51.1992300,4.43221900,,,0,S8821121,3       
8821121_1       ,,Anvers-Berchem,,51.1992300,4.43221900,,,0,S8821121,1       
8821121,,Anvers-Berchem,,51.1992300,4.43221900,,,0,S8821121,
S8821147,,Mortsel,,51.1829600,4.44843500,,,1,,
8821147_2       ,,Mortsel,,51.1829600,4.44843500,,,0,S8821147,2       
8821147_1       ,,Mortsel,,51.1829600,4.44843500,,,0,S8821147,1       
8821147,,Mortsel,,51.1829600,4.44843500,,,0,S8821147,
S8821154,,Mortsel-Deurnesteenweg,,51.1830300,4.44651500,,,1,,
8821154_1       ,,Mortsel-Deurnesteenweg,,51.1830300,4.44651500,,,0,S8821154,1       
8821154_2       ,,Mortsel-Deurnesteenweg,,51.1830300,4.44651500,,,0,S8821154,2       
8821154,,Mortsel-Deurnesteenweg,,51.1830300,4.44651500,,,0,S8821154,
S8821196,,Anvers-Sud,,51.1978300,4.39026400,,,1,,
8821196_3       ,,Anvers-Sud,,51.1978300,4.39026400,,,0,S8821196,3       
8821196_1       ,,Anvers-Sud,,51.1978300,4.39026400,,,0,S8821196,1       
8821196_4       ,,Anvers-Sud,,51.1978300,4.39026400,,,0,S8821196,4       
8821196_2       ,,Anvers-Sud,,51.1978300,4.39026400,,,0,S8821196,2       
8821196,,Anvers-Sud,,51.1978300,4.39026400,,,0,S8821196,
S8821238,,Mortsel-Oude God,,51.1712500,4.45573700,,,1,,
8821238_1       ,,Mortsel-Oude God,,51.1712500,4.45573700,,,0,S8821238,1       
8821238_2       ,,Mortsel-Oude God,,51.1712500,4.45573700,,,0,S8821238,2       
8821238,,Mortsel-Oude God,,51.1712500,4.45573700,,,0,S8821238,
S8821246,,Mortsel-Liersesteenweg,,51.1690300,4.46884100,,,1,,
8821246_1       ,,Mortsel-Liersesteenweg,,51.1690300,4.46884100,,,0,S8821246,1       
8821246_2       ,,Mortsel-Liersesteenweg,,51.1690300,4.46884100,,,0,S8821246,2       
8821246,,Mortsel-Liersesteenweg,,51.1690300,4.46884100,,,0,S8821246,
S8821311,,Kontich-Lint,,51.1340300,4.47635800,,,1,,
8821311_3       ,,Kontich-Lint,,51.1340300,4.47635800,,,0,S8821311,3       
8821311_1       ,,Kontich-Lint,,51.1340300,4.47635800,,,0,S8821311,1       
8821311_2       ,,Kontich-Lint,,51.1340300,4.47635800,,,0,S8821311,2       
8821311_4       ,,Kontich-Lint,,51.1340300,4.47635800,,,0,S8821311,4       
8821311_5       ,,Kontich-Lint,,51.1340300,4.47635800,,,0,S8821311,5       
8821311,,Kontich-Lint,,51.1340300,4.47635800,,,0,S8821311,
S8821337,,Hove,,51.1541200,4.46515800,,,1,,
8821337_2       ,,Hove,,51.1541200,4.46515800,,,0,S8821337,2       
8821337_4       ,,Hove,,51.1541200,4.46515800,,,0,S8821337,4       
8821337_3       ,,Hove,,51.1541200,4.46515800,,,0,S8821337,3       
8821337_1       ,,Hove,,51.1541200,4.46515800,,,0,S8821337,1       
8821337,,Hove,,51.1541200,4.46515800,,,0,S8821337,
S8821402,,Essen,,51.4627600,4.45131800,,,1,,
8821402_3       ,,Essen,,51.4627600,4.45131800,,,0,S8821402,3       
8821402_2       ,,Essen,,51.4627600,4.45131800,,,0,S8821402,2       
8821402,,Essen,,51.4627600,4.45131800,,,0,S8821402,
S8821436,,Wildert,,51.4280900,4.46334900,,,1,,
8821436_2       ,,Wildert,,51.4280900,4.46334900,,,0,S8821436,2       
8821436_1       ,,Wildert,,51.4280900,4.46334900,,,0,S8821436,1       
8821436,,Wildert,,51.4280900,4.46334900,,,0,S8821436,
S8821444,,Kalmthout,,51.3911700,4.46682500,,,1,,
8821444_2       ,,Kalmthout,,51.3911700,4.46682500,,,0,S8821444,2       
8821444_1       ,,Kalmthout,,51.3911700,4.46682500,,,0,S8821444,1       
8821444,,Kalmthout,,51.3911700,4.46682500,,,0,S8821444,
S8821451,,Kijkuit,,51.3786600,4.46731800,,,1,,
8821451_2       ,,Kijkuit,,51.3786600,4.46731800,,,0,S8821451,2       
8821451_1       ,,Kijkuit,,51.3786600,4.46731800,,,0,S8821451,1       
8821451,,Kijkuit,,51.3786600,4.46731800,,,0,S8821451,
S8821519,,Heide,,51.3646200,4.46048200,,,1,,
8821519_1       ,,Heide,,51.3646200,4.46048200,,,0,S8821519,1       
8821519_2       ,,Heide,,51.3646200,4.46048200,,,0,S8821519,2       
8821519,,Heide,,51.3646200,4.46048200,,,0,S8821519,
S8821535,,Kapellen,,51.3135300,4.43266200,,,1,,
8821535_1       ,,Kapellen,,51.3135300,4.43266200,,,0,S8821535,1       
8821535_2       ,,Kapellen,,51.3135300,4.43266200,,,0,S8821535,2       
8821535,,Kapellen,,51.3135300,4.43266200,,,0,S8821535,
S8821543,,Sint-Mariaburg,,51.2916500,4.43490200,,,1,,
8821543_1       ,,Sint-Mariaburg,,51.2916500,4.43490200,,,0,S8821543,1       
8821543_2       ,,Sint-Mariaburg,,51.2916500,4.43490200,,,0,S8821543,2       
8821543,,Sint-Mariaburg,,51.2916500,4.43490200,,,0,S8821543,
S8821600,,Lierre,,51.1357600,4.56061100,,,1,,
8821600_5       ,,Lierre,,51.1357600,4.56061100,,,0,S8821600,5       
8821600_3       ,,Lierre,,51.1357600,4.56061100,,,0,S8821600,3       
8821600_2       ,,Lierre,,51.1357600,4.56061100,,,0,S8821600,2       
8821600_1       ,,Lierre,,51.1357600,4.56061100,,,0,S8821600,1       
8821600_4       ,,Lierre,,51.1357600,4.56061100,,,0,S8821600,4       
8821600,,Lierre,,51.1357600,4.56061100,,,0,S8821600,
S8821634,,Boechout,,51.1634800,4.49448700,,,1,,
8821634_1       ,,Boechout,,51.1634800,4.49448700,,,0,S8821634,1       
8821634_2       ,,Boechout,,51.1634800,4.49448700,,,0,S8821634,2       
8821634,,Boechout,,51.1634800,4.49448700,,,0,S8821634,
S8821659,,Kessel,,51.1510600,4.61846000,,,1,,
8821659_1       ,,Kessel,,51.1510600,4.61846000,,,0,S8821659,1       
8821659_2       ,,Kessel,,51.1510600,4.61846000,,,0,S8821659,2       
8821659,,Kessel,,51.1510600,4.61846000,,,0,S8821659,
S8821667,,Nijlen,,51.1598400,4.66658900,,,1,,
8821667_1       ,,Nijlen,,51.1598400,4.66658900,,,0,S8821667,1       
8821667_2       ,,Nijlen,,51.1598400,4.66658900,,,0,S8821667,2       
8821667,,Nijlen,,51.1598400,4.66658900,,,0,S8821667,
S8821709,,Wolfstee,,51.1683600,4.78614800,,,1,,
8821709_1       ,,Wolfstee,,51.1683600,4.78614800,,,0,S8821709,1       
8821709_2       ,,Wolfstee,,51.1683600,4.78614800,,,0,S8821709,2       
8821709,,Wolfstee,,51.1683600,4.78614800,,,0,S8821709,
S8821717,,Herentals,,51.1815100,4.82954000,,,1,,
8821717_1       ,,Herentals,,51.1815100,4.82954000,,,0,S8821717,1       
8821717_2       ,,Herentals,,51.1815100,4.82954000,,,0,S8821717,2       
8821717_5       ,,Herentals,,51.1815100,4.82954000,,,0,S8821717,5       
8821717_3       ,,Herentals,,51.1815100,4.82954000,,,0,S8821717,3       
8821717_A       ,,Herentals,,51.1815100,4.82954000,,,0,S8821717,A       
8821717,,Herentals,,51.1815100,4.82954000,,,0,S8821717,
S8821725,,Bouwel,,51.1657600,4.74651500,,,1,,
8821725_1       ,,Bouwel,,51.1657600,4.74651500,,,0,S8821725,1       
8821725_2       ,,Bouwel,,51.1657600,4.74651500,,,0,S8821725,2       
8821725,,Bouwel,,51.1657600,4.74651500,,,0,S8821725,
S8821816,,Berlaar,,51.1136600,4.63880800,,,1,,
8821816_1       ,,Berlaar,,51.1136600,4.63880800,,,0,S8821816,1       
8821816_2       ,,Berlaar,,51.1136600,4.63880800,,,0,S8821816,2       
8821816,,Berlaar,,51.1136600,4.63880800,,,0,S8821816,
S8821824,,Melkouwen,,51.0949400,4.67153300,,,1,,
8821824_1       ,,Melkouwen,,51.0949400,4.67153300,,,0,S8821824,1       
8821824_2       ,,Melkouwen,,51.0949400,4.67153300,,,0,S8821824,2       
8821824,,Melkouwen,,51.0949400,4.67153300,,,0,S8821824,
S8821832,,Heist-Op-Den-Berg,,51.0741500,4.70823100,,,1,,
8821832_1       ,,Heist-Op-Den-Berg,,51.0741500,4.70823100,,,0,S8821832,1       
8821832_2       ,,Heist-Op-Den-Berg,,51.0741500,4.70823100,,,0,S8821832,2       
8821832,,Heist-Op-Den-Berg,,51.0741500,4.70823100,,,0,S8821832,
S8821857,,Booischot,,51.0373400,4.77348100,,,1,,
8821857_1       ,,Booischot,,51.0373400,4.77348100,,,0,S8821857,1       
8821857_2       ,,Booischot,,51.0373400,4.77348100,,,0,S8821857,2       
8821857,,Booischot,,51.0373400,4.77348100,,,0,S8821857,
S8821865,,Begijnendijk,,51.0219700,4.80034000,,,1,,
8821865_2       ,,Begijnendijk,,51.0219700,4.80034000,,,0,S8821865,2       
8821865_1       ,,Begijnendijk,,51.0219700,4.80034000,,,0,S8821865,1       
8821865,,Begijnendijk,,51.0219700,4.80034000,,,0,S8821865,
S8821907,,Turnhout,,51.3220300,4.93741300,,,1,,
8821907_1       ,,Turnhout,,51.3220300,4.93741300,,,0,S8821907,1       
8821907_2       ,,Turnhout,,51.3220300,4.93741300,,,0,S8821907,2       
8821907,,Turnhout,,51.3220300,4.93741300,,,0,S8821907,
S8821964,,Tielen,,51.2410200,4.89309000,,,1,,
8821964_1       ,,Tielen,,51.2410200,4.89309000,,,0,S8821964,1       
8821964_2       ,,Tielen,,51.2410200,4.89309000,,,0,S8821964,2       
8821964,,Tielen,,51.2410200,4.89309000,,,0,S8821964,
S8822004,,Malines,,51.0176500,4.48278500,,,1,,
8822004_3       ,,Malines,,51.0176500,4.48278500,,,0,S8822004,3       
8822004_4       ,,Malines,,51.0176500,4.48278500,,,0,S8822004,4       
8822004_5       ,,Malines,,51.0176500,4.48278500,,,0,S8822004,5       
8822004_6       ,,Malines,,51.0176500,4.48278500,,,0,S8822004,6       
8822004_8       ,,Malines,,51.0176500,4.48278500,,,0,S8822004,8       
8822004_7       ,,Malines,,51.0176500,4.48278500,,,0,S8822004,7       
8822004_12      ,,Malines,,51.0176500,4.48278500,,,0,S8822004,12      
8822004_11      ,,Malines,,51.0176500,4.48278500,,,0,S8822004,11      
8822004,,Malines,,51.0176500,4.48278500,,,0,S8822004,
S8822053,,Kapelle-Op-Den-Bos,,51.0108400,4.35911800,,,1,,
8822053_1       ,,Kapelle-Op-Den-Bos,,51.0108400,4.35911800,,,0,S8822053,1       
8822053_2       ,,Kapelle-Op-Den-Bos,,51.0108400,4.35911800,,,0,S8822053,2       
8822053,,Kapelle-Op-Den-Bos,,51.0108400,4.35911800,,,0,S8822053,
S8822111,,Londerzeel,,51.0090900,4.29906900,,,1,,
8822111_1       ,,Londerzeel,,51.0090900,4.29906900,,,0,S8822111,1       
8822111_2       ,,Londerzeel,,51.0090900,4.29906900,,,0,S8822111,2       
8822111_3       ,,Londerzeel,,51.0090900,4.29906900,,,0,S8822111,3       
8822111,,Londerzeel,,51.0090900,4.29906900,,,0,S8822111,
S8822137,,Malderen,,51.0144900,4.22911000,,,1,,
8822137_1       ,,Malderen,,51.0144900,4.22911000,,,0,S8822137,1       
8822137_2       ,,Malderen,,51.0144900,4.22911000,,,0,S8822137,2       
8822137,,Malderen,,51.0144900,4.22911000,,,0,S8822137,
S8822145,,Buggenhout,,51.0162900,4.20166300,,,1,,
8822145_1       ,,Buggenhout,,51.0162900,4.20166300,,,0,S8822145,1       
8822145_2       ,,Buggenhout,,51.0162900,4.20166300,,,0,S8822145,2       
8822145,,Buggenhout,,51.0162900,4.20166300,,,0,S8822145,
S8822160,,Baasrode-Zuid,,51.0194400,4.15349600,,,1,,
8822160_1       ,,Baasrode-Zuid,,51.0194400,4.15349600,,,0,S8822160,1       
8822160_2       ,,Baasrode-Zuid,,51.0194400,4.15349600,,,0,S8822160,2       
8822160,,Baasrode-Zuid,,51.0194400,4.15349600,,,0,S8822160,
S8822210,,Duffel,,51.0912400,4.49318400,,,1,,
8822210_3       ,,Duffel,,51.0912400,4.49318400,,,0,S8822210,3       
8822210_1       ,,Duffel,,51.0912400,4.49318400,,,0,S8822210,1       
8822210_2       ,,Duffel,,51.0912400,4.49318400,,,0,S8822210,2       
8822210_4       ,,Duffel,,51.0912400,4.49318400,,,0,S8822210,4       
8822210,,Duffel,,51.0912400,4.49318400,,,0,S8822210,
S8822228,,Sint-Katelijne-Waver,,51.0699800,4.49611900,,,1,,
8822228_3       ,,Sint-Katelijne-Waver,,51.0699800,4.49611900,,,0,S8822228,3       
8822228_1       ,,Sint-Katelijne-Waver,,51.0699800,4.49611900,,,0,S8822228,1       
8822228_2       ,,Sint-Katelijne-Waver,,51.0699800,4.49611900,,,0,S8822228,2       
8822228_4       ,,Sint-Katelijne-Waver,,51.0699800,4.49611900,,,0,S8822228,4       
8822228,,Sint-Katelijne-Waver,,51.0699800,4.49611900,,,0,S8822228,
S8822251,,Weerde,,50.9774500,4.47093500,,,1,,
8822251_3       ,,Weerde,,50.9774500,4.47093500,,,0,S8822251,3       
8822251_1       ,,Weerde,,50.9774500,4.47093500,,,0,S8822251,1       
8822251_2       ,,Weerde,,50.9774500,4.47093500,,,0,S8822251,2       
8822251_4       ,,Weerde,,50.9774500,4.47093500,,,0,S8822251,4       
8822251,,Weerde,,50.9774500,4.47093500,,,0,S8822251,
S8822269,,Eppegem,,50.9584000,4.45749000,,,1,,
8822269_3       ,,Eppegem,,50.9584000,4.45749000,,,0,S8822269,3       
8822269_1       ,,Eppegem,,50.9584000,4.45749000,,,0,S8822269,1       
8822269_2       ,,Eppegem,,50.9584000,4.45749000,,,0,S8822269,2       
8822269_4       ,,Eppegem,,50.9584000,4.45749000,,,0,S8822269,4       
8822269,,Eppegem,,50.9584000,4.45749000,,,0,S8822269,
S8822277,,Hofstade,,50.9886600,4.49834000,,,1,,
8822277_2       ,,Hofstade,,50.9886600,4.49834000,,,0,S8822277,2       
8822277_1       ,,Hofstade,,50.9886600,4.49834000,,,0,S8822277,1       
8822277,,Hofstade,,50.9886600,4.49834000,,,0,S8822277,
S8822343,,Malines-Nekkerspoel,,51.0298800,4.48991700,,,1,,
8822343_3       ,,Malines-Nekkerspoel,,51.0298800,4.48991700,,,0,S8822343,3       
8822343_4       ,,Malines-Nekkerspoel,,51.0298800,4.48991700,,,0,S8822343,4       
8822343_1       ,,Malines-Nekkerspoel,,51.0298800,4.48991700,,,0,S8822343,1       
8822343_2       ,,Malines-Nekkerspoel,,51.0298800,4.48991700,,,0,S8822343,2       
8822343_6       ,,Malines-Nekkerspoel,,51.0298800,4.48991700,,,0,S8822343,6       
8822343,,Malines-Nekkerspoel,,51.0298800,4.48991700,,,0,S8822343,
S8822426,,Muizen,,51.0082000,4.51384000,,,1,,
8822426_4       ,,Muizen,,51.0082000,4.51384000,,,0,S8822426,4       
8822426_1       ,,Muizen,,51.0082000,4.51384000,,,0,S8822426,1       
8822426_3       ,,Muizen,,51.0082000,4.51384000,,,0,S8822426,3       
8822426_2       ,,Muizen,,51.0082000,4.51384000,,,0,S8822426,2       
8822426,,Muizen,,51.0082000,4.51384000,,,0,S8822426,
S8822459,,Hever,,50.9977900,4.53763400,,,1,,
8822459_1       ,,Hever,,50.9977900,4.53763400,,,0,S8822459,1       
8822459_2       ,,Hever,,50.9977900,4.53763400,,,0,S8822459,2       
8822459,,Hever,,50.9977900,4.53763400,,,0,S8822459,
S8822475,,Boortmeerbeek,,50.9818500,4.57390000,,,1,,
8822475_2       ,,Boortmeerbeek,,50.9818500,4.57390000,,,0,S8822475,2       
8822475_1       ,,Boortmeerbeek,,50.9818500,4.57390000,,,0,S8822475,1       
8822475,,Boortmeerbeek,,50.9818500,4.57390000,,,0,S8822475,
S8822517,,Haacht,,50.9664300,4.61330600,,,1,,
8822517_1       ,,Haacht,,50.9664300,4.61330600,,,0,S8822517,1       
8822517_2       ,,Haacht,,50.9664300,4.61330600,,,0,S8822517,2       
8822517,,Haacht,,50.9664300,4.61330600,,,0,S8822517,
S8822525,,Wespelaar-Tildonk,,50.9585500,4.63801400,,,1,,
8822525_1       ,,Wespelaar-Tildonk,,50.9585500,4.63801400,,,0,S8822525,1       
8822525_2       ,,Wespelaar-Tildonk,,50.9585500,4.63801400,,,0,S8822525,2       
8822525,,Wespelaar-Tildonk,,50.9585500,4.63801400,,,0,S8822525,
S8822533,,Hambos,,50.9442500,4.66301000,,,1,,
8822533_1       ,,Hambos,,50.9442500,4.66301000,,,0,S8822533,1       
8822533_2       ,,Hambos,,50.9442500,4.66301000,,,0,S8822533,2       
8822533,,Hambos,,50.9442500,4.66301000,,,0,S8822533,
S8822608,,Willebroek,,51.0663500,4.35602000,,,1,,
8822608_2       ,,Willebroek,,51.0663500,4.35602000,,,0,S8822608,2       
8822608_1       ,,Willebroek,,51.0663500,4.35602000,,,0,S8822608,1       
8822608,,Willebroek,,51.0663500,4.35602000,,,0,S8822608,
S8822715,,Puurs,,51.0772200,4.28270100,,,1,,
8822715_3       ,,Puurs,,51.0772200,4.28270100,,,0,S8822715,3       
8822715_1       ,,Puurs,,51.0772200,4.28270100,,,0,S8822715,1       
8822715_2       ,,Puurs,,51.0772200,4.28270100,,,0,S8822715,2       
8822715,,Puurs,,51.0772200,4.28270100,,,0,S8822715,
S8822772,,Bornem,,51.0992300,4.24053000,,,1,,
8822772_1       ,,Bornem,,51.0992300,4.24053000,,,0,S8822772,1       
8822772,,Bornem,,51.0992300,4.24053000,,,0,S8822772,
S8822814,,Boom,,51.0907100,4.36069800,,,1,,
8822814_3       ,,Boom,,51.0907100,4.36069800,,,0,S8822814,3       
8822814_2       ,,Boom,,51.0907100,4.36069800,,,0,S8822814,2       
8822814,,Boom,,51.0907100,4.36069800,,,0,S8822814,
S8822848,,Ruisbroek-Sauvegarde,,51.0810300,4.32500100,,,1,,
8822848_1       ,,Ruisbroek-Sauvegarde,,51.0810300,4.32500100,,,0,S8822848,1       
8822848,,Ruisbroek-Sauvegarde,,51.0810300,4.32500100,,,0,S8822848,
S8824158,,Hoboken-Polder,,51.1827000,4.34778700,,,1,,
8824158_1       ,,Hoboken-Polder,,51.1827000,4.34778700,,,0,S8824158,1       
8824158_2       ,,Hoboken-Polder,,51.1827000,4.34778700,,,0,S8824158,2       
8824158,,Hoboken-Polder,,51.1827000,4.34778700,,,0,S8824158,
S8824224,,Hemiksem,,51.1362500,4.33829400,,,1,,
8824224_1       ,,Hemiksem,,51.1362500,4.33829400,,,0,S8824224,1       
8824224_2       ,,Hemiksem,,51.1362500,4.33829400,,,0,S8824224,2       
8824224,,Hemiksem,,51.1362500,4.33829400,,,0,S8824224,
S8824232,,Schelle,,51.1255100,4.34026100,,,1,,
8824232_1       ,,Schelle,,51.1255100,4.34026100,,,0,S8824232,1       
8824232_2       ,,Schelle,,51.1255100,4.34026100,,,0,S8824232,2       
8824232,,Schelle,,51.1255100,4.34026100,,,0,S8824232,
S8824240,,Niel,,51.1116000,4.33859100,,,1,,
8824240_1       ,,Niel,,51.1116000,4.33859100,,,0,S8824240,1       
8824240_2       ,,Niel,,51.1116000,4.33859100,,,0,S8824240,2       
8824240,,Niel,,51.1116000,4.33859100,,,0,S8824240,
8829009,,Essen-Grens,,51.4690900,4.44893000,,,0,,
S8831005,,Hasselt,,50.9308200,5.32763100,,,1,,
8831005_1       ,,Hasselt,,50.9308200,5.32763100,,,0,S8831005,1       
8831005_8       ,,Hasselt,,50.9308200,5.32763100,,,0,S8831005,8       
8831005_7       ,,Hasselt,,50.9308200,5.32763100,,,0,S8831005,7       
8831005_5       ,,Hasselt,,50.9308200,5.32763100,,,0,S8831005,5       
8831005_2       ,,Hasselt,,50.9308200,5.32763100,,,0,S8831005,2       
8831005_3       ,,Hasselt,,50.9308200,5.32763100,,,0,S8831005,3       
8831005_4       ,,Hasselt,,50.9308200,5.32763100,,,0,S8831005,4       
8831005_6       ,,Hasselt,,50.9308200,5.32763100,,,0,S8831005,6       
8831005_9       ,,Hasselt,,50.9308200,5.32763100,,,0,S8831005,9       
8831005,,Hasselt,,50.9308200,5.32763100,,,0,S8831005,
S8831039,,Alken,,50.8868300,5.29286700,,,1,,
8831039_2       ,,Alken,,50.8868300,5.29286700,,,0,S8831039,2       
8831039_1       ,,Alken,,50.8868300,5.29286700,,,0,S8831039,1       
8831039,,Alken,,50.8868300,5.29286700,,,0,S8831039,
S8831088,,Schulen,,50.9637600,5.18740500,,,1,,
8831088_2       ,,Schulen,,50.9637600,5.18740500,,,0,S8831088,2       
8831088_1       ,,Schulen,,50.9637600,5.18740500,,,0,S8831088,1       
8831088,,Schulen,,50.9637600,5.18740500,,,0,S8831088,
S8831112,,Diepenbeek,,50.9104500,5.41994600,,,1,,
8831112_2       ,,Diepenbeek,,50.9104500,5.41994600,,,0,S8831112,2       
8831112_1       ,,Diepenbeek,,50.9104500,5.41994600,,,0,S8831112,1       
8831112,,Diepenbeek,,50.9104500,5.41994600,,,0,S8831112,
S8831138,,Bilzen,,50.8686400,5.50938000,,,1,,
8831138_2       ,,Bilzen,,50.8686400,5.50938000,,,0,S8831138,2       
8831138_1       ,,Bilzen,,50.8686400,5.50938000,,,0,S8831138,1       
8831138,,Bilzen,,50.8686400,5.50938000,,,0,S8831138,
S8831310,,Tongres,,50.7844000,5.47328000,,,1,,
8831310_1       ,,Tongres,,50.7844000,5.47328000,,,0,S8831310,1       
8831310_5       ,,Tongres,,50.7844000,5.47328000,,,0,S8831310,5       
8831310_4       ,,Tongres,,50.7844000,5.47328000,,,0,S8831310,4       
8831310_2       ,,Tongres,,50.7844000,5.47328000,,,0,S8831310,2       
8831310_3       ,,Tongres,,50.7844000,5.47328000,,,0,S8831310,3       
8831310,,Tongres,,50.7844000,5.47328000,,,0,S8831310,
S8831401,,Diest,,50.9933400,5.05003000,,,1,,
8831401_1       ,,Diest,,50.9933400,5.05003000,,,0,S8831401,1       
8831401_2       ,,Diest,,50.9933400,5.05003000,,,0,S8831401,2       
8831401,,Diest,,50.9933400,5.05003000,,,0,S8831401,
S8831765,,Genk,,50.9670600,5.49768300,,,1,,
8831765_1       ,,Genk,,50.9670600,5.49768300,,,0,S8831765,1       
8831765_2       ,,Genk,,50.9670600,5.49768300,,,0,S8831765,2       
8831765_3       ,,Genk,,50.9670600,5.49768300,,,0,S8831765,3       
8831765,,Genk,,50.9670600,5.49768300,,,0,S8831765,
S8831781,,Bokrijk,,50.9558100,5.40838300,,,1,,
8831781_2       ,,Bokrijk,,50.9558100,5.40838300,,,0,S8831781,2       
8831781_1       ,,Bokrijk,,50.9558100,5.40838300,,,0,S8831781,1       
8831781,,Bokrijk,,50.9558100,5.40838300,,,0,S8831781,
S8831807,,Saint-Trond,,50.8176200,5.17665000,,,1,,
8831807_1       ,,Saint-Trond,,50.8176200,5.17665000,,,0,S8831807,1       
8831807_2       ,,Saint-Trond,,50.8176200,5.17665000,,,0,S8831807,2       
8831807,,Saint-Trond,,50.8176200,5.17665000,,,0,S8831807,
S8832003,,Bourg-Leopold,,51.1173100,5.25729000,,,1,,
8832003_1       ,,Bourg-Leopold,,51.1173100,5.25729000,,,0,S8832003,1       
8832003,,Bourg-Leopold,,51.1173100,5.25729000,,,0,S8832003,
S8832045,,Balen,,51.1691000,5.16498500,,,1,,
8832045_1       ,,Balen,,51.1691000,5.16498500,,,0,S8832045,1       
8832045,,Balen,,51.1691000,5.16498500,,,0,S8832045,
S8832227,,Beverlo,,51.0877200,5.23437500,,,1,,
8832227_1       ,,Beverlo,,51.0877200,5.23437500,,,0,S8832227,1       
8832227,,Beverlo,,51.0877200,5.23437500,,,0,S8832227,
S8832235,,Beringen,,51.0506000,5.23589000,,,1,,
8832235_2       ,,Beringen,,51.0506000,5.23589000,,,0,S8832235,2       
8832235_1       ,,Beringen,,51.0506000,5.23589000,,,0,S8832235,1       
8832235,,Beringen,,51.0506000,5.23589000,,,0,S8832235,
S8832243,,Heusden,,51.0382000,5.28178600,,,1,,
8832243_2       ,,Heusden,,51.0382000,5.28178600,,,0,S8832243,2       
8832243_1       ,,Heusden,,51.0382000,5.28178600,,,0,S8832243,1       
8832243,,Heusden,,51.0382000,5.28178600,,,0,S8832243,
S8832250,,Zolder,,51.0335200,5.33027400,,,1,,
8832250_1       ,,Zolder,,51.0335200,5.33027400,,,0,S8832250,1       
8832250,,Zolder,,51.0335200,5.33027400,,,0,S8832250,
S8832334,,Zonhoven,,50.9895600,5.34881300,,,1,,
8832334_1       ,,Zonhoven,,50.9895600,5.34881300,,,0,S8832334,1       
8832334,,Zonhoven,,50.9895600,5.34881300,,,0,S8832334,
S8832375,,Kiewit,,50.9548500,5.35022600,,,1,,
8832375_2       ,,Kiewit,,50.9548500,5.35022600,,,0,S8832375,2       
8832375_1       ,,Kiewit,,50.9548500,5.35022600,,,0,S8832375,1       
8832375,,Kiewit,,50.9548500,5.35022600,,,0,S8832375,
S8832409,,Mol,,51.1910500,5.11633300,,,1,,
8832409_2       ,,Mol,,51.1910500,5.11633300,,,0,S8832409,2       
8832409_1       ,,Mol,,51.1910500,5.11633300,,,0,S8832409,1       
8832409_3       ,,Mol,,51.1910500,5.11633300,,,0,S8832409,3       
8832409,,Mol,,51.1910500,5.11633300,,,0,S8832409,
S8832433,,Geel,,51.1689600,4.98861100,,,1,,
8832433_1       ,,Geel,,51.1689600,4.98861100,,,0,S8832433,1       
8832433_2       ,,Geel,,51.1689600,4.98861100,,,0,S8832433,2       
8832433,,Geel,,51.1689600,4.98861100,,,0,S8832433,
S8832458,,Olen,,51.1740300,4.90250000,,,1,,
8832458_1       ,,Olen,,51.1740300,4.90250000,,,0,S8832458,1       
8832458_2       ,,Olen,,51.1740300,4.90250000,,,0,S8832458,2       
8832458,,Olen,,51.1740300,4.90250000,,,0,S8832458,
S8832565,,Lommel,,51.2115600,5.31203200,,,1,,
8832565_1       ,,Lommel,,51.2115600,5.31203200,,,0,S8832565,1       
8832565,,Lommel,,51.2115600,5.31203200,,,0,S8832565,
S8832573,,Overpelt,,51.2156200,5.42275600,,,1,,
8832573_1       ,,Overpelt,,51.2156200,5.42275600,,,0,S8832573,1       
8832573,,Overpelt,,51.2156200,5.42275600,,,0,S8832573,
S8832615,,Neerpelt,,51.2223700,5.43717000,,,1,,
8832615_2       ,,Neerpelt,,51.2223700,5.43717000,,,0,S8832615,2       
8832615_3       ,,Neerpelt,,51.2223700,5.43717000,,,0,S8832615,3       
8832615_1       ,,Neerpelt,,51.2223700,5.43717000,,,0,S8832615,1       
8832615,,Neerpelt,,51.2223700,5.43717000,,,0,S8832615,
S8832664,,Hamont,,51.2464200,5.54327600,,,1,,
8832664_1       ,,Hamont,,51.2464200,5.54327600,,,0,S8832664,1       
8832664,,Hamont,,51.2464200,5.54327600,,,0,S8832664,
S8833001,,Louvain,,50.8822800,4.71586800,,,1,,
8833001_6       ,,Louvain,,50.8822800,4.71586800,,,0,S8833001,6       
8833001_8       ,,Louvain,,50.8822800,4.71586800,,,0,S8833001,8       
8833001_5       ,,Louvain,,50.8822800,4.71586800,,,0,S8833001,5       
8833001_4       ,,Louvain,,50.8822800,4.71586800,,,0,S8833001,4       
8833001_9       ,,Louvain,,50.8822800,4.71586800,,,0,S8833001,9       
8833001_7       ,,Louvain,,50.8822800,4.71586800,,,0,S8833001,7       
8833001_3       ,,Louvain,,50.8822800,4.71586800,,,0,S8833001,3       
8833001_A       ,,Louvain,,50.8822800,4.71586800,,,0,S8833001,A       
8833001_B       ,,Louvain,,50.8822800,4.71586800,,,0,S8833001,B       
8833001_1       ,,Louvain,,50.8822800,4.71586800,,,0,S8833001,1       
8833001_2       ,,Louvain,,50.8822800,4.71586800,,,0,S8833001,2       
8833001_D       ,,Louvain,,50.8822800,4.71586800,,,0,S8833001,D       
8833001_C       ,,Louvain,,50.8822800,4.71586800,,,0,S8833001,C       
8833001,,Louvain,,50.8822800,4.71586800,,,0,S8833001,
S8833050,,Vertrijk,,50.8362800,4.83552000,,,1,,
8833050_2       ,,Vertrijk,,50.8362800,4.83552000,,,0,S8833050,2       
8833050_1       ,,Vertrijk,,50.8362800,4.83552000,,,0,S8833050,1       
8833050,,Vertrijk,,50.8362800,4.83552000,,,0,S8833050,
S8833126,,Heverlee,,50.8625300,4.69520100,,,1,,
8833126_1       ,,Heverlee,,50.8625300,4.69520100,,,0,S8833126,1       
8833126_2       ,,Heverlee,,50.8625300,4.69520100,,,0,S8833126,2       
8833126,,Heverlee,,50.8625300,4.69520100,,,0,S8833126,
S8833134,,Oud-Heverlee,,50.8359300,4.65331000,,,1,,
8833134_1       ,,Oud-Heverlee,,50.8359300,4.65331000,,,0,S8833134,1       
8833134_2       ,,Oud-Heverlee,,50.8359300,4.65331000,,,0,S8833134,2       
8833134,,Oud-Heverlee,,50.8359300,4.65331000,,,0,S8833134,
S8833159,,Sint-Joris-Weert,,50.8006300,4.65172800,,,1,,
8833159_3       ,,Sint-Joris-Weert,,50.8006300,4.65172800,,,0,S8833159,3       
8833159_2       ,,Sint-Joris-Weert,,50.8006300,4.65172800,,,0,S8833159,2       
8833159_1       ,,Sint-Joris-Weert,,50.8006300,4.65172800,,,0,S8833159,1       
8833159,,Sint-Joris-Weert,,50.8006300,4.65172800,,,0,S8833159,
S8833175,,Wijgmaal,,50.9227400,4.70147800,,,1,,
8833175_2       ,,Wijgmaal,,50.9227400,4.70147800,,,0,S8833175,2       
8833175_1       ,,Wijgmaal,,50.9227400,4.70147800,,,0,S8833175,1       
8833175,,Wijgmaal,,50.9227400,4.70147800,,,0,S8833175,
S8833209,,Aarschot,,50.9844100,4.82404000,,,1,,
8833209_2       ,,Aarschot,,50.9844100,4.82404000,,,0,S8833209,2       
8833209_1       ,,Aarschot,,50.9844100,4.82404000,,,0,S8833209,1       
8833209_3       ,,Aarschot,,50.9844100,4.82404000,,,0,S8833209,3       
8833209_4       ,,Aarschot,,50.9844100,4.82404000,,,0,S8833209,4       
8833209_5       ,,Aarschot,,50.9844100,4.82404000,,,0,S8833209,5       
8833209,,Aarschot,,50.9844100,4.82404000,,,0,S8833209,
S8833233,,Wezemaal,,50.9562600,4.74768100,,,1,,
8833233_2       ,,Wezemaal,,50.9562600,4.74768100,,,0,S8833233,2       
8833233_1       ,,Wezemaal,,50.9562600,4.74768100,,,0,S8833233,1       
8833233,,Wezemaal,,50.9562600,4.74768100,,,0,S8833233,
S8833258,,Langdorp,,51.0024700,4.86354000,,,1,,
8833258_2       ,,Langdorp,,51.0024700,4.86354000,,,0,S8833258,2       
8833258_1       ,,Langdorp,,51.0024700,4.86354000,,,0,S8833258,1       
8833258,,Langdorp,,51.0024700,4.86354000,,,0,S8833258,
S8833266,,Testelt,,51.0098600,4.94583000,,,1,,
8833266_2       ,,Testelt,,51.0098600,4.94583000,,,0,S8833266,2       
8833266_1       ,,Testelt,,51.0098600,4.94583000,,,0,S8833266,1       
8833266,,Testelt,,51.0098600,4.94583000,,,0,S8833266,
S8833274,,Zichem,,51.0066900,4.98736000,,,1,,
8833274_2       ,,Zichem,,51.0066900,4.98736000,,,0,S8833274,2       
8833274_1       ,,Zichem,,51.0066900,4.98736000,,,0,S8833274,1       
8833274,,Zichem,,51.0066900,4.98736000,,,0,S8833274,
S8833308,,Tirlemont,,50.8080200,4.92581000,,,1,,
8833308_1       ,,Tirlemont,,50.8080200,4.92581000,,,0,S8833308,1       
8833308_4       ,,Tirlemont,,50.8080200,4.92581000,,,0,S8833308,4       
8833308,,Tirlemont,,50.8080200,4.92581000,,,0,S8833308,
S8833449,,Ezemaal,,50.7721300,4.99422000,,,1,,
8833449_2       ,,Ezemaal,,50.7721300,4.99422000,,,0,S8833449,2       
8833449_1       ,,Ezemaal,,50.7721300,4.99422000,,,0,S8833449,1       
8833449,,Ezemaal,,50.7721300,4.99422000,,,0,S8833449,
S8833605,,Landen,,50.7479300,5.07966000,,,1,,
8833605_1       ,,Landen,,50.7479300,5.07966000,,,0,S8833605,1       
8833605_4       ,,Landen,,50.7479300,5.07966000,,,0,S8833605,4       
8833605_5       ,,Landen,,50.7479300,5.07966000,,,0,S8833605,5       
8833605_3       ,,Landen,,50.7479300,5.07966000,,,0,S8833605,3       
8833605_2       ,,Landen,,50.7479300,5.07966000,,,0,S8833605,2       
8833605,,Landen,,50.7479300,5.07966000,,,0,S8833605,
S8833670,,Neerwinden,,50.7639600,5.03632000,,,1,,
8833670_2       ,,Neerwinden,,50.7639600,5.03632000,,,0,S8833670,2       
8833670_1       ,,Neerwinden,,50.7639600,5.03632000,,,0,S8833670,1       
8833670,,Neerwinden,,50.7639600,5.03632000,,,0,S8833670,
S8841004,,Liege-Guillemins,,50.6245500,5.56669800,,,1,,
8841004_7       ,,Liege-Guillemins,,50.6245500,5.56669800,,,0,S8841004,7       
8841004_6       ,,Liege-Guillemins,,50.6245500,5.56669800,,,0,S8841004,6       
8841004_5       ,,Liege-Guillemins,,50.6245500,5.56669800,,,0,S8841004,5       
8841004_8       ,,Liege-Guillemins,,50.6245500,5.56669800,,,0,S8841004,8       
8841004_2       ,,Liege-Guillemins,,50.6245500,5.56669800,,,0,S8841004,2       
8841004_4       ,,Liege-Guillemins,,50.6245500,5.56669800,,,0,S8841004,4       
8841004_3       ,,Liege-Guillemins,,50.6245500,5.56669800,,,0,S8841004,3       
8841004_1       ,,Liege-Guillemins,,50.6245500,5.56669800,,,0,S8841004,1       
8841004_9       ,,Liege-Guillemins,,50.6245500,5.56669800,,,0,S8841004,9       
8841004,,Liege-Guillemins,,50.6245500,5.56669800,,,0,S8841004,
S8841202,,Ans,,50.6612100,5.50970000,,,1,,
8841202_3       ,,Ans,,50.6612100,5.50970000,,,0,S8841202,3       
8841202_5       ,,Ans,,50.6612100,5.50970000,,,0,S8841202,5       
8841202_1       ,,Ans,,50.6612100,5.50970000,,,0,S8841202,1       
8841202_2       ,,Ans,,50.6612100,5.50970000,,,0,S8841202,2       
8841202_4       ,,Ans,,50.6612100,5.50970000,,,0,S8841202,4       
8841202,,Ans,,50.6612100,5.50970000,,,0,S8841202,
S8841319,,Bierset-Awans,,50.6586100,5.46055000,,,1,,
8841319_1       ,,Bierset-Awans,,50.6586100,5.46055000,,,0,S8841319,1       
8841319_2       ,,Bierset-Awans,,50.6586100,5.46055000,,,0,S8841319,2       
8841319,,Bierset-Awans,,50.6586100,5.46055000,,,0,S8841319,
S8841327,,Voroux,,50.6618100,5.42956000,,,1,,
8841327_1       ,,Voroux,,50.6618100,5.42956000,,,0,S8841327,1       
8841327_2       ,,Voroux,,50.6618100,5.42956000,,,0,S8841327,2       
8841327,,Voroux,,50.6618100,5.42956000,,,0,S8841327,
S8841400,,Waremme,,50.6945500,5.24948000,,,1,,
8841400_1       ,,Waremme,,50.6945500,5.24948000,,,0,S8841400,1       
8841400_4       ,,Waremme,,50.6945500,5.24948000,,,0,S8841400,4       
8841400_2       ,,Waremme,,50.6945500,5.24948000,,,0,S8841400,2       
8841400_3       ,,Waremme,,50.6945500,5.24948000,,,0,S8841400,3       
8841400,,Waremme,,50.6945500,5.24948000,,,0,S8841400,
S8841434,,Bleret,,50.6850700,5.28639800,,,1,,
8841434_2       ,,Bleret,,50.6850700,5.28639800,,,0,S8841434,2       
8841434_1       ,,Bleret,,50.6850700,5.28639800,,,0,S8841434,1       
8841434,,Bleret,,50.6850700,5.28639800,,,0,S8841434,
S8841442,,Remicourt,,50.6786100,5.32141000,,,1,,
8841442_2       ,,Remicourt,,50.6786100,5.32141000,,,0,S8841442,2       
8841442_1       ,,Remicourt,,50.6786100,5.32141000,,,0,S8841442,1       
8841442,,Remicourt,,50.6786100,5.32141000,,,0,S8841442,
S8841459,,Momalle,,50.6699100,5.36760000,,,1,,
8841459_2       ,,Momalle,,50.6699100,5.36760000,,,0,S8841459,2       
8841459_1       ,,Momalle,,50.6699100,5.36760000,,,0,S8841459,1       
8841459,,Momalle,,50.6699100,5.36760000,,,0,S8841459,
S8841467,,Fexhe-Le-Haut-Clocher,,50.6640500,5.39845000,,,1,,
8841467_1       ,,Fexhe-Le-Haut-Clocher,,50.6640500,5.39845000,,,0,S8841467,1       
8841467_2       ,,Fexhe-Le-Haut-Clocher,,50.6640500,5.39845000,,,0,S8841467,2       
8841467,,Fexhe-Le-Haut-Clocher,,50.6640500,5.39845000,,,0,S8841467,
S8841525,,Liege-Saint-Lambert,,50.6463500,5.57045100,,,1,,
8841525_1       ,,Liege-Saint-Lambert,,50.6463500,5.57045100,,,0,S8841525,1       
8841525_4       ,,Liege-Saint-Lambert,,50.6463500,5.57045100,,,0,S8841525,4       
8841525_2       ,,Liege-Saint-Lambert,,50.6463500,5.57045100,,,0,S8841525,2       
8841525_3       ,,Liege-Saint-Lambert,,50.6463500,5.57045100,,,0,S8841525,3       
8841525,,Liege-Saint-Lambert,,50.6463500,5.57045100,,,0,S8841525,
S8841558,,Liege-Carre,,50.6403000,5.56113000,,,1,,
8841558_1       ,,Liege-Carre,,50.6403000,5.56113000,,,0,S8841558,1       
8841558_2       ,,Liege-Carre,,50.6403000,5.56113000,,,0,S8841558,2       
8841558,,Liege-Carre,,50.6403000,5.56113000,,,0,S8841558,
S8841608,,Herstal,,50.6609100,5.62276200,,,1,,
8841608_2       ,,Herstal,,50.6609100,5.62276200,,,0,S8841608,2       
8841608_1       ,,Herstal,,50.6609100,5.62276200,,,0,S8841608,1       
8841608_3       ,,Herstal,,50.6609100,5.62276200,,,0,S8841608,3       
8841608_4       ,,Herstal,,50.6609100,5.62276200,,,0,S8841608,4       
8841608,,Herstal,,50.6609100,5.62276200,,,0,S8841608,
S8841665,,Milmort,,50.6924600,5.60009400,,,1,,
8841665_2       ,,Milmort,,50.6924600,5.60009400,,,0,S8841665,2       
8841665_1       ,,Milmort,,50.6924600,5.60009400,,,0,S8841665,1       
8841665,,Milmort,,50.6924600,5.60009400,,,0,S8841665,
S8841673,,Liers,,50.6981800,5.56682900,,,1,,
8841673_2       ,,Liers,,50.6981800,5.56682900,,,0,S8841673,2       
8841673_1       ,,Liers,,50.6981800,5.56682900,,,0,S8841673,1       
8841673_3       ,,Liers,,50.6981800,5.56682900,,,0,S8841673,3       
8841673,,Liers,,50.6981800,5.56682900,,,0,S8841673,
S8841731,,Glons,,50.7504300,5.53542900,,,1,,
8841731_2       ,,Glons,,50.7504300,5.53542900,,,0,S8841731,2       
8841731,,Glons,,50.7504300,5.53542900,,,0,S8841731,
S8842002,,Angleur,,50.6131400,5.59983000,,,1,,
8842002_4       ,,Angleur,,50.6131400,5.59983000,,,0,S8842002,4       
8842002_1       ,,Angleur,,50.6131400,5.59983000,,,0,S8842002,1       
8842002_2       ,,Angleur,,50.6131400,5.59983000,,,0,S8842002,2       
8842002_5       ,,Angleur,,50.6131400,5.59983000,,,0,S8842002,5       
8842002,,Angleur,,50.6131400,5.59983000,,,0,S8842002,
S8842036,,Chenee,,50.6080200,5.61607500,,,1,,
8842036_1       ,,Chenee,,50.6080200,5.61607500,,,0,S8842036,1       
8842036_2       ,,Chenee,,50.6080200,5.61607500,,,0,S8842036,2       
8842036,,Chenee,,50.6080200,5.61607500,,,0,S8842036,
S8842051,,Chaudfontaine,,50.5869800,5.64373400,,,1,,
8842051_2       ,,Chaudfontaine,,50.5869800,5.64373400,,,0,S8842051,2       
8842051_1       ,,Chaudfontaine,,50.5869800,5.64373400,,,0,S8842051,1       
8842051,,Chaudfontaine,,50.5869800,5.64373400,,,0,S8842051,
S8842630,,Tilff,,50.5706300,5.58393300,,,1,,
8842630_2       ,,Tilff,,50.5706300,5.58393300,,,0,S8842630,2       
8842630_1       ,,Tilff,,50.5706300,5.58393300,,,0,S8842630,1       
8842630,,Tilff,,50.5706300,5.58393300,,,0,S8842630,
S8842648,,Mery,,50.5476200,5.58723700,,,1,,
8842648_2       ,,Mery,,50.5476200,5.58723700,,,0,S8842648,2       
8842648_1       ,,Mery,,50.5476200,5.58723700,,,0,S8842648,1       
8842648,,Mery,,50.5476200,5.58723700,,,0,S8842648,
S8842655,,Hony,,50.5399200,5.57356700,,,1,,
8842655_2       ,,Hony,,50.5399200,5.57356700,,,0,S8842655,2       
8842655_1       ,,Hony,,50.5399200,5.57356700,,,0,S8842655,1       
8842655,,Hony,,50.5399200,5.57356700,,,0,S8842655,
S8842663,,Esneux,,50.5305600,5.57256700,,,1,,
8842663_2       ,,Esneux,,50.5305600,5.57256700,,,0,S8842663,2       
8842663_1       ,,Esneux,,50.5305600,5.57256700,,,0,S8842663,1       
8842663,,Esneux,,50.5305600,5.57256700,,,0,S8842663,
S8842689,,Poulseur,,50.5092100,5.57885500,,,1,,
8842689_2       ,,Poulseur,,50.5092100,5.57885500,,,0,S8842689,2       
8842689_1       ,,Poulseur,,50.5092100,5.57885500,,,0,S8842689,1       
8842689,,Poulseur,,50.5092100,5.57885500,,,0,S8842689,
S8842705,,Rivage,,50.4832800,5.58763500,,,1,,
8842705_2       ,,Rivage,,50.4832800,5.58763500,,,0,S8842705,2       
8842705_1       ,,Rivage,,50.4832800,5.58763500,,,0,S8842705,1       
8842705,,Rivage,,50.4832800,5.58763500,,,0,S8842705,
S8842754,,Aywaille,,50.4729300,5.67249600,,,1,,
8842754_1       ,,Aywaille,,50.4729300,5.67249600,,,0,S8842754,1       
8842754_2       ,,Aywaille,,50.4729300,5.67249600,,,0,S8842754,2       
8842754,,Aywaille,,50.4729300,5.67249600,,,0,S8842754,
S8842838,,Comblain-La-Tour,,50.4568600,5.56695900,,,1,,
8842838_1       ,,Comblain-La-Tour,,50.4568600,5.56695900,,,0,S8842838,1       
8842838_2       ,,Comblain-La-Tour,,50.4568600,5.56695900,,,0,S8842838,2       
8842838,,Comblain-La-Tour,,50.4568600,5.56695900,,,0,S8842838,
S8842846,,Hamoir,,50.4281800,5.53356100,,,1,,
8842846_1       ,,Hamoir,,50.4281800,5.53356100,,,0,S8842846,1       
8842846_2       ,,Hamoir,,50.4281800,5.53356100,,,0,S8842846,2       
8842846,,Hamoir,,50.4281800,5.53356100,,,0,S8842846,
S8842853,,Sy,,50.4032600,5.52356600,,,1,,
8842853_1       ,,Sy,,50.4032600,5.52356600,,,0,S8842853,1       
8842853_2       ,,Sy,,50.4032600,5.52356600,,,0,S8842853,2       
8842853,,Sy,,50.4032600,5.52356600,,,0,S8842853,
S8843067,,Seraing,,50.6089000,5.51377700,,,1,,
8843067_1       ,,Seraing,,50.6089000,5.51377700,,,0,S8843067,1       
8843067_2       ,,Seraing,,50.6089000,5.51377700,,,0,S8843067,2       
8843067,,Seraing,,50.6089000,5.51377700,,,0,S8843067,
S8843133,,Sclessin,,50.6098400,5.55891000,,,1,,
8843133_1       ,,Sclessin,,50.6098400,5.55891000,,,0,S8843133,1       
8843133_2       ,,Sclessin,,50.6098400,5.55891000,,,0,S8843133,2       
8843133,,Sclessin,,50.6098400,5.55891000,,,0,S8843133,
S8843141,,Pont-De-Seraing,,50.6196500,5.51016100,,,1,,
8843141_1       ,,Pont-De-Seraing,,50.6196500,5.51016100,,,0,S8843141,1       
8843141_2       ,,Pont-De-Seraing,,50.6196500,5.51016100,,,0,S8843141,2       
8843141,,Pont-De-Seraing,,50.6196500,5.51016100,,,0,S8843141,
S8843158,,Jemeppe-Sur-Meuse,,50.6184500,5.49787100,,,1,,
8843158_1       ,,Jemeppe-Sur-Meuse,,50.6184500,5.49787100,,,0,S8843158,1       
8843158_2       ,,Jemeppe-Sur-Meuse,,50.6184500,5.49787100,,,0,S8843158,2       
8843158,,Jemeppe-Sur-Meuse,,50.6184500,5.49787100,,,0,S8843158,
S8843166,,Flemalle-Grande,,50.6053500,5.48098000,,,1,,
8843166_1       ,,Flemalle-Grande,,50.6053500,5.48098000,,,0,S8843166,1       
8843166_2       ,,Flemalle-Grande,,50.6053500,5.48098000,,,0,S8843166,2       
8843166,,Flemalle-Grande,,50.6053500,5.48098000,,,0,S8843166,
S8843174,,Ougree,,50.6054000,5.53697200,,,1,,
8843174_1       ,,Ougree,,50.6054000,5.53697200,,,0,S8843174,1       
8843174_2       ,,Ougree,,50.6054000,5.53697200,,,0,S8843174,2       
8843174,,Ougree,,50.6054000,5.53697200,,,0,S8843174,
S8843208,,Flemalle-Haute,,50.5953100,5.45766100,,,1,,
8843208_4       ,,Flemalle-Haute,,50.5953100,5.45766100,,,0,S8843208,4       
8843208_5       ,,Flemalle-Haute,,50.5953100,5.45766100,,,0,S8843208,5       
8843208_3       ,,Flemalle-Haute,,50.5953100,5.45766100,,,0,S8843208,3       
8843208_2       ,,Flemalle-Haute,,50.5953100,5.45766100,,,0,S8843208,2       
8843208_1       ,,Flemalle-Haute,,50.5953100,5.45766100,,,0,S8843208,1       
8843208,,Flemalle-Haute,,50.5953100,5.45766100,,,0,S8843208,
S8843224,,Leman,,50.6004000,5.46831000,,,1,,
8843224_1       ,,Leman,,50.6004000,5.46831000,,,0,S8843224,1       
8843224_2       ,,Leman,,50.6004000,5.46831000,,,0,S8843224,2       
8843224,,Leman,,50.6004000,5.46831000,,,0,S8843224,
S8843240,,Engis,,50.5829600,5.40199000,,,1,,
8843240_2       ,,Engis,,50.5829600,5.40199000,,,0,S8843240,2       
8843240_1       ,,Engis,,50.5829600,5.40199000,,,0,S8843240,1       
8843240,,Engis,,50.5829600,5.40199000,,,0,S8843240,
S8843307,,Huy,,50.5272400,5.23421000,,,1,,
8843307_3       ,,Huy,,50.5272400,5.23421000,,,0,S8843307,3       
8843307_2       ,,Huy,,50.5272400,5.23421000,,,0,S8843307,2       
8843307_4       ,,Huy,,50.5272400,5.23421000,,,0,S8843307,4       
8843307_1       ,,Huy,,50.5272400,5.23421000,,,0,S8843307,1       
8843307,,Huy,,50.5272400,5.23421000,,,0,S8843307,
S8843323,,Ampsin,,50.5392200,5.28972700,,,1,,
8843323_1       ,,Ampsin,,50.5392200,5.28972700,,,0,S8843323,1       
8843323_2       ,,Ampsin,,50.5392200,5.28972700,,,0,S8843323,2       
8843323,,Ampsin,,50.5392200,5.28972700,,,0,S8843323,
S8843331,,Amay,,50.5460100,5.32049000,,,1,,
8843331_1       ,,Amay,,50.5460100,5.32049000,,,0,S8843331,1       
8843331_2       ,,Amay,,50.5460100,5.32049000,,,0,S8843331,2       
8843331,,Amay,,50.5460100,5.32049000,,,0,S8843331,
S8843349,,Haute-Flone,,50.5534900,5.33033600,,,1,,
8843349_1       ,,Haute-Flone,,50.5534900,5.33033600,,,0,S8843349,1       
8843349_2       ,,Haute-Flone,,50.5534900,5.33033600,,,0,S8843349,2       
8843349,,Haute-Flone,,50.5534900,5.33033600,,,0,S8843349,
S8843406,,Statte,,50.5282800,5.21968000,,,1,,
8843406_6       ,,Statte,,50.5282800,5.21968000,,,0,S8843406,6       
8843406_7       ,,Statte,,50.5282800,5.21968000,,,0,S8843406,7       
8843406_5       ,,Statte,,50.5282800,5.21968000,,,0,S8843406,5       
8843406_8       ,,Statte,,50.5282800,5.21968000,,,0,S8843406,8       
8843406,,Statte,,50.5282800,5.21968000,,,0,S8843406,
S8843430,,Bas-Oha,,50.5226300,5.19094000,,,1,,
8843430_1       ,,Bas-Oha,,50.5226300,5.19094000,,,0,S8843430,1       
8843430_2       ,,Bas-Oha,,50.5226300,5.19094000,,,0,S8843430,2       
8843430,,Bas-Oha,,50.5226300,5.19094000,,,0,S8843430,
S8843901,,Bressoux,,50.6439600,5.61106200,,,1,,
8843901_2       ,,Bressoux,,50.6439600,5.61106200,,,0,S8843901,2       
8843901_1       ,,Bressoux,,50.6439600,5.61106200,,,0,S8843901,1       
8843901,,Bressoux,,50.6439600,5.61106200,,,0,S8843901,
S8844008,,Verviers-Central,,50.5881400,5.85491300,,,1,,
8844008_2       ,,Verviers-Central,,50.5881400,5.85491300,,,0,S8844008,2       
8844008_3       ,,Verviers-Central,,50.5881400,5.85491300,,,0,S8844008,3       
8844008_4       ,,Verviers-Central,,50.5881400,5.85491300,,,0,S8844008,4       
8844008_1       ,,Verviers-Central,,50.5881400,5.85491300,,,0,S8844008,1       
8844008_5       ,,Verviers-Central,,50.5881400,5.85491300,,,0,S8844008,5       
8844008,,Verviers-Central,,50.5881400,5.85491300,,,0,S8844008,
S8844057,,Verviers-Palais,,50.5909200,5.86533300,,,1,,
8844057_1       ,,Verviers-Palais,,50.5909200,5.86533300,,,0,S8844057,1       
8844057_2       ,,Verviers-Palais,,50.5909200,5.86533300,,,0,S8844057,2       
8844057,,Verviers-Palais,,50.5909200,5.86533300,,,0,S8844057,
S8844206,,Pepinster,,50.5681800,5.80615500,,,1,,
8844206_2       ,,Pepinster,,50.5681800,5.80615500,,,0,S8844206,2       
8844206_1       ,,Pepinster,,50.5681800,5.80615500,,,0,S8844206,1       
8844206_3       ,,Pepinster,,50.5681800,5.80615500,,,0,S8844206,3       
8844206_4       ,,Pepinster,,50.5681800,5.80615500,,,0,S8844206,4       
8844206,,Pepinster,,50.5681800,5.80615500,,,0,S8844206,
S8844230,,Nessonvaux,,50.5720900,5.74157700,,,1,,
8844230_1       ,,Nessonvaux,,50.5720900,5.74157700,,,0,S8844230,1       
8844230_2       ,,Nessonvaux,,50.5720900,5.74157700,,,0,S8844230,2       
8844230,,Nessonvaux,,50.5720900,5.74157700,,,0,S8844230,
S8844255,,Fraipont,,50.5650600,5.72366600,,,1,,
8844255_1       ,,Fraipont,,50.5650600,5.72366600,,,0,S8844255,1       
8844255_2       ,,Fraipont,,50.5650600,5.72366600,,,0,S8844255,2       
8844255,,Fraipont,,50.5650600,5.72366600,,,0,S8844255,
S8844271,,Trooz,,50.5732100,5.68835100,,,1,,
8844271_1       ,,Trooz,,50.5732100,5.68835100,,,0,S8844271,1       
8844271_2       ,,Trooz,,50.5732100,5.68835100,,,0,S8844271,2       
8844271,,Trooz,,50.5732100,5.68835100,,,0,S8844271,
S8844313,,Pepinster-Cite,,50.5634000,5.80439900,,,1,,
8844313_1       ,,Pepinster-Cite,,50.5634000,5.80439900,,,0,S8844313,1       
8844313,,Pepinster-Cite,,50.5634000,5.80439900,,,0,S8844313,
S8844321,,Juslenville,,50.5447200,5.80993500,,,1,,
8844321_1       ,,Juslenville,,50.5447200,5.80993500,,,0,S8844321,1       
8844321,,Juslenville,,50.5447200,5.80993500,,,0,S8844321,
S8844339,,Theux,,50.5361600,5.81503000,,,1,,
8844339_1       ,,Theux,,50.5361600,5.81503000,,,0,S8844339,1       
8844339_2       ,,Theux,,50.5361600,5.81503000,,,0,S8844339,2       
8844339,,Theux,,50.5361600,5.81503000,,,0,S8844339,
S8844347,,Franchimont,,50.5257200,5.82222000,,,1,,
8844347_1       ,,Franchimont,,50.5257200,5.82222000,,,0,S8844347,1       
8844347,,Franchimont,,50.5257200,5.82222000,,,0,S8844347,
S8844404,,Spa,,50.4903000,5.85510100,,,1,,
8844404_1       ,,Spa,,50.4903000,5.85510100,,,0,S8844404,1       
8844404,,Spa,,50.4903000,5.85510100,,,0,S8844404,
S8844420,,Spa-Geronstere,,50.4893000,5.86621100,,,1,,
8844420_1       ,,Spa-Geronstere,,50.4893000,5.86621100,,,0,S8844420,1       
8844420,,Spa-Geronstere,,50.4893000,5.86621100,,,0,S8844420,
S8844503,,Welkenraedt,,50.6597100,5.97538600,,,1,,
8844503_5       ,,Welkenraedt,,50.6597100,5.97538600,,,0,S8844503,5       
8844503_3       ,,Welkenraedt,,50.6597100,5.97538600,,,0,S8844503,3       
8844503_6       ,,Welkenraedt,,50.6597100,5.97538600,,,0,S8844503,6       
8844503_4       ,,Welkenraedt,,50.6597100,5.97538600,,,0,S8844503,4       
8844503_2       ,,Welkenraedt,,50.6597100,5.97538600,,,0,S8844503,2       
8844503,,Welkenraedt,,50.6597100,5.97538600,,,0,S8844503,
S8844545,,Dolhain-Gileppe,,50.6162500,5.93649000,,,1,,
8844545_1       ,,Dolhain-Gileppe,,50.6162500,5.93649000,,,0,S8844545,1       
8844545_2       ,,Dolhain-Gileppe,,50.6162500,5.93649000,,,0,S8844545,2       
8844545,,Dolhain-Gileppe,,50.6162500,5.93649000,,,0,S8844545,
S8844628,,Eupen,,50.6351600,6.03711000,,,1,,
8844628_2       ,,Eupen,,50.6351600,6.03711000,,,0,S8844628,2       
8844628,,Eupen,,50.6351600,6.03711000,,,0,S8844628,
S8844644,,Hergenrath,,50.7182100,6.04133600,,,1,,
8844644_1       ,,Hergenrath,,50.7182100,6.04133600,,,0,S8844644,1       
8844644,,Hergenrath,,50.7182100,6.04133600,,,0,S8844644,
S8845005,,Gouvy,,50.1894100,5.95391000,,,1,,
8845005_1       ,,Gouvy,,50.1894100,5.95391000,,,0,S8845005,1       
8845005_3       ,,Gouvy,,50.1894100,5.95391000,,,0,S8845005,3       
8845005_2       ,,Gouvy,,50.1894100,5.95391000,,,0,S8845005,2       
8845005,,Gouvy,,50.1894100,5.95391000,,,0,S8845005,
S8845146,,Vielsalm,,50.2789300,5.90920900,,,1,,
8845146_1       ,,Vielsalm,,50.2789300,5.90920900,,,0,S8845146,1       
8845146_2       ,,Vielsalm,,50.2789300,5.90920900,,,0,S8845146,2       
8845146,,Vielsalm,,50.2789300,5.90920900,,,0,S8845146,
S8845203,,Trois-Ponts,,50.3682200,5.87357900,,,1,,
8845203_2       ,,Trois-Ponts,,50.3682200,5.87357900,,,0,S8845203,2       
8845203_1       ,,Trois-Ponts,,50.3682200,5.87357900,,,0,S8845203,1       
8845203,,Trois-Ponts,,50.3682200,5.87357900,,,0,S8845203,
S8845229,,Coo,,50.3911300,5.88047400,,,1,,
8845229_1       ,,Coo,,50.3911300,5.88047400,,,0,S8845229,1       
8845229,,Coo,,50.3911300,5.88047400,,,0,S8845229,
S8846201,,Vise,,50.7377600,5.69254800,,,1,,
8846201_1       ,,Vise,,50.7377600,5.69254800,,,0,S8846201,1       
8846201_2       ,,Vise,,50.7377600,5.69254800,,,0,S8846201,2       
8846201,,Vise,,50.7377600,5.69254800,,,0,S8846201,
8847258,,Y.renory,,50.6048500,5.55788000,,,0,,
8849023,,Hergenrath-Frontiere,,50.7189600,6.04126900,,,0,,
8849064,,Vise-Frontiere,,50.7584100,5.70290300,,,0,,
8849072,,Gouvy-Frontiere,,50.1716500,5.96861300,,,0,,
S8861119,,Ronet,,50.4577400,4.82842000,,,1,,
8861119_2       ,,Ronet,,50.4577400,4.82842000,,,0,S8861119,2       
8861119_1       ,,Ronet,,50.4577400,4.82842000,,,0,S8861119,1       
8861119_3       ,,Ronet,,50.4577400,4.82842000,,,0,S8861119,3       
8861119,,Ronet,,50.4577400,4.82842000,,,0,S8861119,
S8861127,,Flawinne,,50.4562400,4.80630000,,,1,,
8861127_2       ,,Flawinne,,50.4562400,4.80630000,,,0,S8861127,2       
8861127_1       ,,Flawinne,,50.4562400,4.80630000,,,0,S8861127,1       
8861127,,Flawinne,,50.4562400,4.80630000,,,0,S8861127,
S8861135,,Floreffe,,50.4433300,4.76237100,,,1,,
8861135_2       ,,Floreffe,,50.4433300,4.76237100,,,0,S8861135,2       
8861135_1       ,,Floreffe,,50.4433300,4.76237100,,,0,S8861135,1       
8861135,,Floreffe,,50.4433300,4.76237100,,,0,S8861135,
S8861143,,Franiere,,50.4395400,4.73355000,,,1,,
8861143_2       ,,Franiere,,50.4395400,4.73355000,,,0,S8861143,2       
8861143_1       ,,Franiere,,50.4395400,4.73355000,,,0,S8861143,1       
8861143,,Franiere,,50.4395400,4.73355000,,,0,S8861143,
S8861150,,Moustier,,50.4527500,4.69381000,,,1,,
8861150_1       ,,Moustier,,50.4527500,4.69381000,,,0,S8861150,1       
8861150_2       ,,Moustier,,50.4527500,4.69381000,,,0,S8861150,2       
8861150,,Moustier,,50.4527500,4.69381000,,,0,S8861150,
8861168,,Ham-Sur-Sambre,,50.4525500,4.66939000,,,0,,
S8861200,,Gembloux,,50.5704800,4.69149700,,,1,,
8861200_3       ,,Gembloux,,50.5704800,4.69149700,,,0,S8861200,3       
8861200_4       ,,Gembloux,,50.5704800,4.69149700,,,0,S8861200,4       
8861200_5       ,,Gembloux,,50.5704800,4.69149700,,,0,S8861200,5       
8861200_2       ,,Gembloux,,50.5704800,4.69149700,,,0,S8861200,2       
8861200_1       ,,Gembloux,,50.5704800,4.69149700,,,0,S8861200,1       
8861200,,Gembloux,,50.5704800,4.69149700,,,0,S8861200,
S8861317,,Chapelle-Dieu,,50.5573800,4.69762400,,,1,,
8861317_1       ,,Chapelle-Dieu,,50.5573800,4.69762400,,,0,S8861317,1       
8861317,,Chapelle-Dieu,,50.5573800,4.69762400,,,0,S8861317,
S8861333,,Mazy,,50.5135000,4.67583000,,,1,,
8861333_1       ,,Mazy,,50.5135000,4.67583000,,,0,S8861333,1       
8861333,,Mazy,,50.5135000,4.67583000,,,0,S8861333,
S8861416,,Lonzee,,50.5519400,4.72010000,,,1,,
8861416_1       ,,Lonzee,,50.5519400,4.72010000,,,0,S8861416,1       
8861416_2       ,,Lonzee,,50.5519400,4.72010000,,,0,S8861416,2       
8861416,,Lonzee,,50.5519400,4.72010000,,,0,S8861416,
S8861424,,Beuzet,,50.5342100,4.74853100,,,1,,
8861424_1       ,,Beuzet,,50.5342100,4.74853100,,,0,S8861424,1       
8861424_2       ,,Beuzet,,50.5342100,4.74853100,,,0,S8861424,2       
8861424,,Beuzet,,50.5342100,4.74853100,,,0,S8861424,
S8861432,,Saint-Denis-Bovesse,,50.5213000,4.76779000,,,1,,
8861432_1       ,,Saint-Denis-Bovesse,,50.5213000,4.76779000,,,0,S8861432,1       
8861432_2       ,,Saint-Denis-Bovesse,,50.5213000,4.76779000,,,0,S8861432,2       
8861432,,Saint-Denis-Bovesse,,50.5213000,4.76779000,,,0,S8861432,
S8861440,,Rhisnes,,50.4993500,4.80187000,,,1,,
8861440_1       ,,Rhisnes,,50.4993500,4.80187000,,,0,S8861440,1       
8861440_2       ,,Rhisnes,,50.4993500,4.80187000,,,0,S8861440,2       
8861440,,Rhisnes,,50.4993500,4.80187000,,,0,S8861440,
S8861515,,Ernage,,50.5908200,4.66854000,,,1,,
8861515_1       ,,Ernage,,50.5908200,4.66854000,,,0,S8861515,1       
8861515_2       ,,Ernage,,50.5908200,4.66854000,,,0,S8861515,2       
8861515,,Ernage,,50.5908200,4.66854000,,,0,S8861515,
S8861523,,Chastre,,50.6088200,4.64888400,,,1,,
8861523_1       ,,Chastre,,50.6088200,4.64888400,,,0,S8861523,1       
8861523_2       ,,Chastre,,50.6088200,4.64888400,,,0,S8861523,2       
8861523,,Chastre,,50.6088200,4.64888400,,,0,S8861523,
S8861531,,Blanmont,,50.6194500,4.63639000,,,1,,
8861531_1       ,,Blanmont,,50.6194500,4.63639000,,,0,S8861531,1       
8861531_2       ,,Blanmont,,50.6194500,4.63639000,,,0,S8861531,2       
8861531,,Blanmont,,50.6194500,4.63639000,,,0,S8861531,
S8861549,,Mont-Saint-Guibert,,50.6376100,4.61388300,,,1,,
8861549_2       ,,Mont-Saint-Guibert,,50.6376100,4.61388300,,,0,S8861549,2       
8861549_1       ,,Mont-Saint-Guibert,,50.6376100,4.61388300,,,0,S8861549,1       
8861549,,Mont-Saint-Guibert,,50.6376100,4.61388300,,,0,S8861549,
S8862018,,Stockem,,49.6909400,5.76911600,,,1,,
8862018_2       ,,Stockem,,49.6909400,5.76911600,,,0,S8862018,2       
8862018_1       ,,Stockem,,49.6909400,5.76911600,,,0,S8862018,1       
8862018,,Stockem,,49.6909400,5.76911600,,,0,S8862018,
S8863008,,Namur,,50.4687900,4.86222000,,,1,,
8863008_11      ,,Namur,,50.4687900,4.86222000,,,0,S8863008,11      
8863008_6       ,,Namur,,50.4687900,4.86222000,,,0,S8863008,6       
8863008_5       ,,Namur,,50.4687900,4.86222000,,,0,S8863008,5       
8863008_3       ,,Namur,,50.4687900,4.86222000,,,0,S8863008,3       
8863008_7       ,,Namur,,50.4687900,4.86222000,,,0,S8863008,7       
8863008_9       ,,Namur,,50.4687900,4.86222000,,,0,S8863008,9       
8863008_8       ,,Namur,,50.4687900,4.86222000,,,0,S8863008,8       
8863008_10      ,,Namur,,50.4687900,4.86222000,,,0,S8863008,10      
8863008_4       ,,Namur,,50.4687900,4.86222000,,,0,S8863008,4       
8863008_2       ,,Namur,,50.4687900,4.86222000,,,0,S8863008,2       
8863008_1       ,,Namur,,50.4687900,4.86222000,,,0,S8863008,1       
8863008,,Namur,,50.4687900,4.86222000,,,0,S8863008,
S8863115,,Jambes,,50.4548500,4.87614300,,,1,,
8863115_2       ,,Jambes,,50.4548500,4.87614300,,,0,S8863115,2       
8863115_1       ,,Jambes,,50.4548500,4.87614300,,,0,S8863115,1       
8863115_3       ,,Jambes,,50.4548500,4.87614300,,,0,S8863115,3       
8863115,,Jambes,,50.4548500,4.87614300,,,0,S8863115,
S8863156,,Lustin,,50.3697500,4.87746800,,,1,,
8863156_1       ,,Lustin,,50.3697500,4.87746800,,,0,S8863156,1       
8863156_2       ,,Lustin,,50.3697500,4.87746800,,,0,S8863156,2       
8863156,,Lustin,,50.3697500,4.87746800,,,0,S8863156,
S8863354,,Jambes-Est,,50.4548000,4.88026000,,,1,,
8863354_1       ,,Jambes-Est,,50.4548000,4.88026000,,,0,S8863354,1       
8863354_2       ,,Jambes-Est,,50.4548000,4.88026000,,,0,S8863354,2       
8863354,,Jambes-Est,,50.4548000,4.88026000,,,0,S8863354,
S8863362,,Dave-Saint-Martin,,50.4291000,4.88441700,,,1,,
8863362_1       ,,Dave-Saint-Martin,,50.4291000,4.88441700,,,0,S8863362,1       
8863362_2       ,,Dave-Saint-Martin,,50.4291000,4.88441700,,,0,S8863362,2       
8863362,,Dave-Saint-Martin,,50.4291000,4.88441700,,,0,S8863362,
S8863404,,Andenne,,50.4967700,5.09470100,,,1,,
8863404_2       ,,Andenne,,50.4967700,5.09470100,,,0,S8863404,2       
8863404_1       ,,Andenne,,50.4967700,5.09470100,,,0,S8863404,1       
8863404,,Andenne,,50.4967700,5.09470100,,,0,S8863404,
S8863438,,Chateau-De-Seilles,,50.4972100,5.08175000,,,1,,
8863438_2       ,,Chateau-De-Seilles,,50.4972100,5.08175000,,,0,S8863438,2       
8863438_1       ,,Chateau-De-Seilles,,50.4972100,5.08175000,,,0,S8863438,1       
8863438,,Chateau-De-Seilles,,50.4972100,5.08175000,,,0,S8863438,
S8863446,,Sclaigneaux,,50.4922400,5.02635900,,,1,,
8863446_2       ,,Sclaigneaux,,50.4922400,5.02635900,,,0,S8863446,2       
8863446_1       ,,Sclaigneaux,,50.4922400,5.02635900,,,0,S8863446,1       
8863446,,Sclaigneaux,,50.4922400,5.02635900,,,0,S8863446,
S8863453,,Nameche,,50.4704300,4.99793900,,,1,,
8863453_1       ,,Nameche,,50.4704300,4.99793900,,,0,S8863453,1       
8863453_2       ,,Nameche,,50.4704300,4.99793900,,,0,S8863453,2       
8863453,,Nameche,,50.4704300,4.99793900,,,0,S8863453,
S8863461,,Marche-Les-Dames,,50.4807400,4.96458000,,,1,,
8863461_1       ,,Marche-Les-Dames,,50.4807400,4.96458000,,,0,S8863461,1       
8863461_2       ,,Marche-Les-Dames,,50.4807400,4.96458000,,,0,S8863461,2       
8863461,,Marche-Les-Dames,,50.4807400,4.96458000,,,0,S8863461,
S8863503,,Dinant,,50.2607200,4.90818000,,,1,,
8863503_1       ,,Dinant,,50.2607200,4.90818000,,,0,S8863503,1       
8863503_3       ,,Dinant,,50.2607200,4.90818000,,,0,S8863503,3       
8863503_2       ,,Dinant,,50.2607200,4.90818000,,,0,S8863503,2       
8863503,,Dinant,,50.2607200,4.90818000,,,0,S8863503,
S8863545,,Yvoir,,50.3208400,4.87864000,,,1,,
8863545_2       ,,Yvoir,,50.3208400,4.87864000,,,0,S8863545,2       
8863545_1       ,,Yvoir,,50.3208400,4.87864000,,,0,S8863545,1       
8863545_3       ,,Yvoir,,50.3208400,4.87864000,,,0,S8863545,3       
8863545,,Yvoir,,50.3208400,4.87864000,,,0,S8863545,
S8863560,,Godinne,,50.3489100,4.86996000,,,1,,
8863560_2       ,,Godinne,,50.3489100,4.86996000,,,0,S8863560,2       
8863560_1       ,,Godinne,,50.3489100,4.86996000,,,0,S8863560,1       
8863560,,Godinne,,50.3489100,4.86996000,,,0,S8863560,
S8863818,,Anseremme,,50.2380200,4.90553000,,,1,,
8863818_2       ,,Anseremme,,50.2380200,4.90553000,,,0,S8863818,2       
8863818_1       ,,Anseremme,,50.2380200,4.90553000,,,0,S8863818,1       
8863818,,Anseremme,,50.2380200,4.90553000,,,0,S8863818,
S8863834,,Gendron-Celles,,50.2112400,4.96461100,,,1,,
8863834_3       ,,Gendron-Celles,,50.2112400,4.96461100,,,0,S8863834,3       
8863834_2       ,,Gendron-Celles,,50.2112400,4.96461100,,,0,S8863834,2       
8863834_1       ,,Gendron-Celles,,50.2112400,4.96461100,,,0,S8863834,1       
8863834,,Gendron-Celles,,50.2112400,4.96461100,,,0,S8863834,
S8863842,,Houyet,,50.1898700,5.00607600,,,1,,
8863842_1       ,,Houyet,,50.1898700,5.00607600,,,0,S8863842,1       
8863842_3       ,,Houyet,,50.1898700,5.00607600,,,0,S8863842,3       
8863842_4       ,,Houyet,,50.1898700,5.00607600,,,0,S8863842,4       
8863842,,Houyet,,50.1898700,5.00607600,,,0,S8863842,
S8863867,,Beauraing,,50.1144300,4.95684000,,,1,,
8863867_1       ,,Beauraing,,50.1144300,4.95684000,,,0,S8863867,1       
8863867_2       ,,Beauraing,,50.1144300,4.95684000,,,0,S8863867,2       
8863867_3       ,,Beauraing,,50.1144300,4.95684000,,,0,S8863867,3       
8863867,,Beauraing,,50.1144300,4.95684000,,,0,S8863867,
S8864006,,Rochefort-Jemelle,,50.1604000,5.26669700,,,1,,
8864006_6       ,,Rochefort-Jemelle,,50.1604000,5.26669700,,,0,S8864006,6       
8864006_5       ,,Rochefort-Jemelle,,50.1604000,5.26669700,,,0,S8864006,5       
8864006_2       ,,Rochefort-Jemelle,,50.1604000,5.26669700,,,0,S8864006,2       
8864006_1       ,,Rochefort-Jemelle,,50.1604000,5.26669700,,,0,S8864006,1       
8864006_7       ,,Rochefort-Jemelle,,50.1604000,5.26669700,,,0,S8864006,7       
8864006_4       ,,Rochefort-Jemelle,,50.1604000,5.26669700,,,0,S8864006,4       
8864006_3       ,,Rochefort-Jemelle,,50.1604000,5.26669700,,,0,S8864006,3       
8864006,,Rochefort-Jemelle,,50.1604000,5.26669700,,,0,S8864006,
S8864311,,Forrieres,,50.1327600,5.27678300,,,1,,
8864311_1       ,,Forrieres,,50.1327600,5.27678300,,,0,S8864311,1       
8864311_2       ,,Forrieres,,50.1327600,5.27678300,,,0,S8864311,2       
8864311,,Forrieres,,50.1327600,5.27678300,,,0,S8864311,
S8864337,,Grupont,,50.0906000,5.28052700,,,1,,
8864337_2       ,,Grupont,,50.0906000,5.28052700,,,0,S8864337,2       
8864337_1       ,,Grupont,,50.0906000,5.28052700,,,0,S8864337,1       
8864337,,Grupont,,50.0906000,5.28052700,,,0,S8864337,
S8864345,,Marloie,,50.2028200,5.31389000,,,1,,
8864345_3       ,,Marloie,,50.2028200,5.31389000,,,0,S8864345,3       
8864345_1       ,,Marloie,,50.2028200,5.31389000,,,0,S8864345,1       
8864345_2       ,,Marloie,,50.2028200,5.31389000,,,0,S8864345,2       
8864345_4       ,,Marloie,,50.2028200,5.31389000,,,0,S8864345,4       
8864345,,Marloie,,50.2028200,5.31389000,,,0,S8864345,
S8864352,,Aye,,50.2241300,5.30109600,,,1,,
8864352_1       ,,Aye,,50.2241300,5.30109600,,,0,S8864352,1       
8864352_2       ,,Aye,,50.2241300,5.30109600,,,0,S8864352,2       
8864352,,Aye,,50.2241300,5.30109600,,,0,S8864352,
S8864410,,Marche-En-Famenne,,50.2224700,5.34629000,,,1,,
8864410_1       ,,Marche-En-Famenne,,50.2224700,5.34629000,,,0,S8864410,1       
8864410,,Marche-En-Famenne,,50.2224700,5.34629000,,,0,S8864410,
S8864436,,Melreux-Hotton,,50.2836700,5.44014000,,,1,,
8864436_1       ,,Melreux-Hotton,,50.2836700,5.44014000,,,0,S8864436,1       
8864436_2       ,,Melreux-Hotton,,50.2836700,5.44014000,,,0,S8864436,2       
8864436,,Melreux-Hotton,,50.2836700,5.44014000,,,0,S8864436,
S8864451,,Barvaux,,50.3494200,5.50154000,,,1,,
8864451_1       ,,Barvaux,,50.3494200,5.50154000,,,0,S8864451,1       
8864451,,Barvaux,,50.3494200,5.50154000,,,0,S8864451,
S8864469,,Bomal,,50.3768000,5.51930400,,,1,,
8864469_1       ,,Bomal,,50.3768000,5.51930400,,,0,S8864469,1       
8864469_2       ,,Bomal,,50.3768000,5.51930400,,,0,S8864469,2       
8864469_3       ,,Bomal,,50.3768000,5.51930400,,,0,S8864469,3       
8864469,,Bomal,,50.3768000,5.51930400,,,0,S8864469,
S8864501,,Ciney,,50.2910500,5.09140600,,,1,,
8864501_4       ,,Ciney,,50.2910500,5.09140600,,,0,S8864501,4       
8864501_1       ,,Ciney,,50.2910500,5.09140600,,,0,S8864501,1       
8864501_5       ,,Ciney,,50.2910500,5.09140600,,,0,S8864501,5       
8864501_3       ,,Ciney,,50.2910500,5.09140600,,,0,S8864501,3       
8864501_2       ,,Ciney,,50.2910500,5.09140600,,,0,S8864501,2       
8864501,,Ciney,,50.2910500,5.09140600,,,0,S8864501,
S8864816,,Leignon,,50.2677700,5.10778000,,,1,,
8864816_2       ,,Leignon,,50.2677700,5.10778000,,,0,S8864816,2       
8864816_1       ,,Leignon,,50.2677700,5.10778000,,,0,S8864816,1       
8864816,,Leignon,,50.2677700,5.10778000,,,0,S8864816,
S8864824,,Chapois,,50.2623700,5.12426000,,,1,,
8864824_2       ,,Chapois,,50.2623700,5.12426000,,,0,S8864824,2       
8864824_1       ,,Chapois,,50.2623700,5.12426000,,,0,S8864824,1       
8864824,,Chapois,,50.2623700,5.12426000,,,0,S8864824,
S8864832,,Haversin,,50.2490400,5.19437600,,,1,,
8864832_1       ,,Haversin,,50.2490400,5.19437600,,,0,S8864832,1       
8864832_2       ,,Haversin,,50.2490400,5.19437600,,,0,S8864832,2       
8864832,,Haversin,,50.2490400,5.19437600,,,0,S8864832,
S8864915,,Natoye,,50.3433000,5.06116200,,,1,,
8864915_1       ,,Natoye,,50.3433000,5.06116200,,,0,S8864915,1       
8864915_2       ,,Natoye,,50.3433000,5.06116200,,,0,S8864915,2       
8864915,,Natoye,,50.3433000,5.06116200,,,0,S8864915,
S8864931,,Assesse,,50.3681400,5.02283600,,,1,,
8864931_1       ,,Assesse,,50.3681400,5.02283600,,,0,S8864931,1       
8864931_2       ,,Assesse,,50.3681400,5.02283600,,,0,S8864931,2       
8864931,,Assesse,,50.3681400,5.02283600,,,0,S8864931,
S8864949,,Courriere,,50.3874400,4.99605100,,,1,,
8864949_1       ,,Courriere,,50.3874400,4.99605100,,,0,S8864949,1       
8864949_2       ,,Courriere,,50.3874400,4.99605100,,,0,S8864949,2       
8864949,,Courriere,,50.3874400,4.99605100,,,0,S8864949,
S8864956,,Sart-Bernard,,50.4063700,4.94974000,,,1,,
8864956_1       ,,Sart-Bernard,,50.4063700,4.94974000,,,0,S8864956,1       
8864956_2       ,,Sart-Bernard,,50.4063700,4.94974000,,,0,S8864956,2       
8864956,,Sart-Bernard,,50.4063700,4.94974000,,,0,S8864956,
S8864964,,Naninne,,50.4196900,4.92975400,,,1,,
8864964_1       ,,Naninne,,50.4196900,4.92975400,,,0,S8864964,1       
8864964_2       ,,Naninne,,50.4196900,4.92975400,,,0,S8864964,2       
8864964,,Naninne,,50.4196900,4.92975400,,,0,S8864964,
S8865003,,Libramont,,49.9204300,5.37927000,,,1,,
8865003_3       ,,Libramont,,49.9204300,5.37927000,,,0,S8865003,3       
8865003_5       ,,Libramont,,49.9204300,5.37927000,,,0,S8865003,5       
8865003_4       ,,Libramont,,49.9204300,5.37927000,,,0,S8865003,4       
8865003_2       ,,Libramont,,49.9204300,5.37927000,,,0,S8865003,2       
8865003_1       ,,Libramont,,49.9204300,5.37927000,,,0,S8865003,1       
8865003_6       ,,Libramont,,49.9204300,5.37927000,,,0,S8865003,6       
8865003,,Libramont,,49.9204300,5.37927000,,,0,S8865003,
S8865227,,Poix-Saint-Hubert,,50.0195100,5.29264600,,,1,,
8865227_1       ,,Poix-Saint-Hubert,,50.0195100,5.29264600,,,0,S8865227,1       
8865227_2       ,,Poix-Saint-Hubert,,50.0195100,5.29264600,,,0,S8865227,2       
8865227,,Poix-Saint-Hubert,,50.0195100,5.29264600,,,0,S8865227,
S8865300,,Bertrix,,49.8528300,5.26718900,,,1,,
8865300_2       ,,Bertrix,,49.8528300,5.26718900,,,0,S8865300,2       
8865300_1       ,,Bertrix,,49.8528300,5.26718900,,,0,S8865300,1       
8865300_3       ,,Bertrix,,49.8528300,5.26718900,,,0,S8865300,3       
8865300,,Bertrix,,49.8528300,5.26718900,,,0,S8865300,
S8865540,,Paliseul,,49.8954100,5.11835100,,,1,,
8865540_2       ,,Paliseul,,49.8954100,5.11835100,,,0,S8865540,2       
8865540_1       ,,Paliseul,,49.8954100,5.11835100,,,0,S8865540,1       
8865540,,Paliseul,,49.8954100,5.11835100,,,0,S8865540,
S8865565,,Carlsbourg,,49.9054600,5.09278500,,,1,,
8865565_1       ,,Carlsbourg,,49.9054600,5.09278500,,,0,S8865565,1       
8865565_2       ,,Carlsbourg,,49.9054600,5.09278500,,,0,S8865565,2       
8865565,,Carlsbourg,,49.9054600,5.09278500,,,0,S8865565,
S8865615,,Graide,,49.9341300,5.04304400,,,1,,
8865615_1       ,,Graide,,49.9341300,5.04304400,,,0,S8865615,1       
8865615_2       ,,Graide,,49.9341300,5.04304400,,,0,S8865615,2       
8865615,,Graide,,49.9341300,5.04304400,,,0,S8865615,
S8865649,,Gedinne,,49.9841200,4.97807700,,,1,,
8865649_1       ,,Gedinne,,49.9841200,4.97807700,,,0,S8865649,1       
8865649_2       ,,Gedinne,,49.9841200,4.97807700,,,0,S8865649,2       
8865649,,Gedinne,,49.9841200,4.97807700,,,0,S8865649,
S8866001,,Arlon,,49.6805300,5.80997200,,,1,,
8866001_4       ,,Arlon,,49.6805300,5.80997200,,,0,S8866001,4       
8866001_2       ,,Arlon,,49.6805300,5.80997200,,,0,S8866001,2       
8866001_1       ,,Arlon,,49.6805300,5.80997200,,,0,S8866001,1       
8866001_3       ,,Arlon,,49.6805300,5.80997200,,,0,S8866001,3       
8866001_5       ,,Arlon,,49.6805300,5.80997200,,,0,S8866001,5       
8866001,,Arlon,,49.6805300,5.80997200,,,0,S8866001,
S8866118,,Viville,,49.6882400,5.78652500,,,1,,
8866118_2       ,,Viville,,49.6882400,5.78652500,,,0,S8866118,2       
8866118_1       ,,Viville,,49.6882400,5.78652500,,,0,S8866118,1       
8866118,,Viville,,49.6882400,5.78652500,,,0,S8866118,
S8866142,,Habay,,49.7182500,5.63268900,,,1,,
8866142_1       ,,Habay,,49.7182500,5.63268900,,,0,S8866142,1       
8866142_2       ,,Habay,,49.7182500,5.63268900,,,0,S8866142,2       
8866142,,Habay,,49.7182500,5.63268900,,,0,S8866142,
S8866175,,Marbehan,,49.7273300,5.53975700,,,1,,
8866175_3       ,,Marbehan,,49.7273300,5.53975700,,,0,S8866175,3       
8866175_2       ,,Marbehan,,49.7273300,5.53975700,,,0,S8866175,2       
8866175,,Marbehan,,49.7273300,5.53975700,,,0,S8866175,
S8866258,,Neufchateau,,49.8543200,5.45255700,,,1,,
8866258_2       ,,Neufchateau,,49.8543200,5.45255700,,,0,S8866258,2       
8866258_1       ,,Neufchateau,,49.8543200,5.45255700,,,0,S8866258,1       
8866258,,Neufchateau,,49.8543200,5.45255700,,,0,S8866258,
S8866407,,Virton,,49.5608200,5.51912200,,,1,,
8866407_2       ,,Virton,,49.5608200,5.51912200,,,0,S8866407,2       
8866407_3       ,,Virton,,49.5608200,5.51912200,,,0,S8866407,3       
8866407_4       ,,Virton,,49.5608200,5.51912200,,,0,S8866407,4       
8866407,,Virton,,49.5608200,5.51912200,,,0,S8866407,
S8866530,,Halanzy,,49.5562100,5.74134700,,,1,,
8866530_1       ,,Halanzy,,49.5562100,5.74134700,,,0,S8866530,1       
8866530_2       ,,Halanzy,,49.5562100,5.74134700,,,0,S8866530,2       
8866530,,Halanzy,,49.5562100,5.74134700,,,0,S8866530,
S8866605,,Athus,,49.5633400,5.82894400,,,1,,
8866605_3       ,,Athus,,49.5633400,5.82894400,,,0,S8866605,3       
8866605_1       ,,Athus,,49.5633400,5.82894400,,,0,S8866605,1       
8866605_2       ,,Athus,,49.5633400,5.82894400,,,0,S8866605,2       
8866605,,Athus,,49.5633400,5.82894400,,,0,S8866605,
S8866654,,Aubange,,49.5640900,5.79805800,,,1,,
8866654_1       ,,Aubange,,49.5640900,5.79805800,,,0,S8866654,1       
8866654_2       ,,Aubange,,49.5640900,5.79805800,,,0,S8866654,2       
8866654,,Aubange,,49.5640900,5.79805800,,,0,S8866654,
S8866662,,Messancy,,49.5927800,5.81891900,,,1,,
8866662_1       ,,Messancy,,49.5927800,5.81891900,,,0,S8866662,1       
8866662,,Messancy,,49.5927800,5.81891900,,,0,S8866662,
S8866845,,Florenville,,49.7069700,5.33112000,,,1,,
8866845_1       ,,Florenville,,49.7069700,5.33112000,,,0,S8866845,1       
8866845_2       ,,Florenville,,49.7069700,5.33112000,,,0,S8866845,2       
8866845,,Florenville,,49.7069700,5.33112000,,,0,S8866845,
8869047,,Athus-Frontiere,,49.5517500,5.82493200,,,0,,
8869054,,Sterpenich-Frontiere,,49.6439600,5.90415000,,,0,,
S8871100,,Marchienne-Au-Pont,,50.4121700,4.39422000,,,1,,
8871100_3       ,,Marchienne-Au-Pont,,50.4121700,4.39422000,,,0,S8871100,3       
8871100_4       ,,Marchienne-Au-Pont,,50.4121700,4.39422000,,,0,S8871100,4       
8871100_1       ,,Marchienne-Au-Pont,,50.4121700,4.39422000,,,0,S8871100,1       
8871100_2       ,,Marchienne-Au-Pont,,50.4121700,4.39422000,,,0,S8871100,2       
8871100,,Marchienne-Au-Pont,,50.4121700,4.39422000,,,0,S8871100,
S8871175,,Jamioulx,,50.3529000,4.41129000,,,1,,
8871175_1       ,,Jamioulx,,50.3529000,4.41129000,,,0,S8871175,1       
8871175_2       ,,Jamioulx,,50.3529000,4.41129000,,,0,S8871175,2       
8871175,,Jamioulx,,50.3529000,4.41129000,,,0,S8871175,
S8871183,,Beignee,,50.3338900,4.40630700,,,1,,
8871183_2       ,,Beignee,,50.3338900,4.40630700,,,0,S8871183,2       
8871183_1       ,,Beignee,,50.3338900,4.40630700,,,0,S8871183,1       
8871183,,Beignee,,50.3338900,4.40630700,,,0,S8871183,
S8871217,,Roux,,50.4431100,4.39320000,,,1,,
8871217_4       ,,Roux,,50.4431100,4.39320000,,,0,S8871217,4       
8871217_5       ,,Roux,,50.4431100,4.39320000,,,0,S8871217,5       
8871217_3       ,,Roux,,50.4431100,4.39320000,,,0,S8871217,3       
8871217,,Roux,,50.4431100,4.39320000,,,0,S8871217,
S8871225,,Courcelles-Motte,,50.4620100,4.40053000,,,1,,
8871225_3       ,,Courcelles-Motte,,50.4620100,4.40053000,,,0,S8871225,3       
8871225_4       ,,Courcelles-Motte,,50.4620100,4.40053000,,,0,S8871225,4       
8871225_1       ,,Courcelles-Motte,,50.4620100,4.40053000,,,0,S8871225,1       
8871225_2       ,,Courcelles-Motte,,50.4620100,4.40053000,,,0,S8871225,2       
8871225,,Courcelles-Motte,,50.4620100,4.40053000,,,0,S8871225,
S8871308,,Luttre,,50.5058600,4.38412000,,,1,,
8871308_2       ,,Luttre,,50.5058600,4.38412000,,,0,S8871308,2       
8871308_1       ,,Luttre,,50.5058600,4.38412000,,,0,S8871308,1       
8871308_5       ,,Luttre,,50.5058600,4.38412000,,,0,S8871308,5       
8871308_3       ,,Luttre,,50.5058600,4.38412000,,,0,S8871308,3       
8871308_4       ,,Luttre,,50.5058600,4.38412000,,,0,S8871308,4       
8871308,,Luttre,,50.5058600,4.38412000,,,0,S8871308,
S8871332,,Obaix-Buzet,,50.5352100,4.36357000,,,1,,
8871332_2       ,,Obaix-Buzet,,50.5352100,4.36357000,,,0,S8871332,2       
8871332_1       ,,Obaix-Buzet,,50.5352100,4.36357000,,,0,S8871332,1       
8871332,,Obaix-Buzet,,50.5352100,4.36357000,,,0,S8871332,
S8871365,,Pont-A-Celles,,50.5138100,4.35529600,,,1,,
8871365_1       ,,Pont-A-Celles,,50.5138100,4.35529600,,,0,S8871365,1       
8871365_2       ,,Pont-A-Celles,,50.5138100,4.35529600,,,0,S8871365,2       
8871365,,Pont-A-Celles,,50.5138100,4.35529600,,,0,S8871365,
S8871373,,Gouy-Lez-Pieton,,50.4970600,4.32512600,,,1,,
8871373_1       ,,Gouy-Lez-Pieton,,50.4970600,4.32512600,,,0,S8871373,1       
8871373_2       ,,Gouy-Lez-Pieton,,50.4970600,4.32512600,,,0,S8871373,2       
8871373,,Gouy-Lez-Pieton,,50.4970600,4.32512600,,,0,S8871373,
S8871381,,Godarville,,50.4928000,4.29031000,,,1,,
8871381_1       ,,Godarville,,50.4928000,4.29031000,,,0,S8871381,1       
8871381_2       ,,Godarville,,50.4928000,4.29031000,,,0,S8871381,2       
8871381,,Godarville,,50.4928000,4.29031000,,,0,S8871381,
S8871415,,Pieton,,50.4349600,4.28844000,,,1,,
8871415_2       ,,Pieton,,50.4349600,4.28844000,,,0,S8871415,2       
8871415_3       ,,Pieton,,50.4349600,4.28844000,,,0,S8871415,3       
8871415_1       ,,Pieton,,50.4349600,4.28844000,,,0,S8871415,1       
8871415,,Pieton,,50.4349600,4.28844000,,,0,S8871415,
S8871514,,Forchies,,50.4333100,4.32538100,,,1,,
8871514_1       ,,Forchies,,50.4333100,4.32538100,,,0,S8871514,1       
8871514_2       ,,Forchies,,50.4333100,4.32538100,,,0,S8871514,2       
8871514,,Forchies,,50.4333100,4.32538100,,,0,S8871514,
S8871605,,Erquelinnes,,50.3041900,4.11356000,,,1,,
8871605_2       ,,Erquelinnes,,50.3041900,4.11356000,,,0,S8871605,2       
8871605_1       ,,Erquelinnes,,50.3041900,4.11356000,,,0,S8871605,1       
8871605_C       ,,Erquelinnes,,50.3041900,4.11356000,,,0,S8871605,C       
8871605,,Erquelinnes,,50.3041900,4.11356000,,,0,S8871605,
S8871647,,Erquelinnes-Village,,50.3101800,4.13231000,,,1,,
8871647_2       ,,Erquelinnes-Village,,50.3101800,4.13231000,,,0,S8871647,2       
8871647_1       ,,Erquelinnes-Village,,50.3101800,4.13231000,,,0,S8871647,1       
8871647,,Erquelinnes-Village,,50.3101800,4.13231000,,,0,S8871647,
S8871662,,Solre-Sur-Sambre,,50.3126400,4.15843000,,,1,,
8871662_1       ,,Solre-Sur-Sambre,,50.3126400,4.15843000,,,0,S8871662,1       
8871662_2       ,,Solre-Sur-Sambre,,50.3126400,4.15843000,,,0,S8871662,2       
8871662,,Solre-Sur-Sambre,,50.3126400,4.15843000,,,0,S8871662,
S8871670,,Labuissiere,,50.3163300,4.18683200,,,1,,
8871670_2       ,,Labuissiere,,50.3163300,4.18683200,,,0,S8871670,2       
8871670_1       ,,Labuissiere,,50.3163300,4.18683200,,,0,S8871670,1       
8871670,,Labuissiere,,50.3163300,4.18683200,,,0,S8871670,
S8871688,,Fontaine Valmont,,50.3211700,4.21278700,,,1,,
8871688_2       ,,Fontaine Valmont,,50.3211700,4.21278700,,,0,S8871688,2       
8871688_1       ,,Fontaine Valmont,,50.3211700,4.21278700,,,0,S8871688,1       
8871688,,Fontaine Valmont,,50.3211700,4.21278700,,,0,S8871688,
S8871712,,Lobbes,,50.3464700,4.26095700,,,1,,
8871712_2       ,,Lobbes,,50.3464700,4.26095700,,,0,S8871712,2       
8871712,,Lobbes,,50.3464700,4.26095700,,,0,S8871712,
S8871811,,Thuin,,50.3427400,4.28891000,,,1,,
8871811_2       ,,Thuin,,50.3427400,4.28891000,,,0,S8871811,2       
8871811,,Thuin,,50.3427400,4.28891000,,,0,S8871811,
S8871829,,Hourpes,,50.3636900,4.30874000,,,1,,
8871829_1       ,,Hourpes,,50.3636900,4.30874000,,,0,S8871829,1       
8871829,,Hourpes,,50.3636900,4.30874000,,,0,S8871829,
S8871837,,Landelies,,50.3773100,4.35098000,,,1,,
8871837_2       ,,Landelies,,50.3773100,4.35098000,,,0,S8871837,2       
8871837_1       ,,Landelies,,50.3773100,4.35098000,,,0,S8871837,1       
8871837,,Landelies,,50.3773100,4.35098000,,,0,S8871837,
S8871852,,Marchienne-Zone,,50.3974700,4.38876400,,,1,,
8871852_2       ,,Marchienne-Zone,,50.3974700,4.38876400,,,0,S8871852,2       
8871852_1       ,,Marchienne-Zone,,50.3974700,4.38876400,,,0,S8871852,1       
8871852,,Marchienne-Zone,,50.3974700,4.38876400,,,0,S8871852,
S8872009,,Charleroi-Central,,50.4047100,4.43857000,,,1,,
8872009_9       ,,Charleroi-Central,,50.4047100,4.43857000,,,0,S8872009,9       
8872009_5       ,,Charleroi-Central,,50.4047100,4.43857000,,,0,S8872009,5       
8872009_4       ,,Charleroi-Central,,50.4047100,4.43857000,,,0,S8872009,4       
8872009_1       ,,Charleroi-Central,,50.4047100,4.43857000,,,0,S8872009,1       
8872009_3       ,,Charleroi-Central,,50.4047100,4.43857000,,,0,S8872009,3       
8872009_2       ,,Charleroi-Central,,50.4047100,4.43857000,,,0,S8872009,2       
8872009_10      ,,Charleroi-Central,,50.4047100,4.43857000,,,0,S8872009,10      
8872009_12      ,,Charleroi-Central,,50.4047100,4.43857000,,,0,S8872009,12      
8872009_7       ,,Charleroi-Central,,50.4047100,4.43857000,,,0,S8872009,7       
8872009_11      ,,Charleroi-Central,,50.4047100,4.43857000,,,0,S8872009,11      
8872009_6       ,,Charleroi-Central,,50.4047100,4.43857000,,,0,S8872009,6       
8872009,,Charleroi-Central,,50.4047100,4.43857000,,,0,S8872009,
S8872066,,Charleroi-Ouest,,50.4109500,4.43665200,,,1,,
8872066_2       ,,Charleroi-Ouest,,50.4109500,4.43665200,,,0,S8872066,2       
8872066_1       ,,Charleroi-Ouest,,50.4109500,4.43665200,,,0,S8872066,1       
8872066_3       ,,Charleroi-Ouest,,50.4109500,4.43665200,,,0,S8872066,3       
8872066,,Charleroi-Ouest,,50.4109500,4.43665200,,,0,S8872066,
S8872306,,Lodelinsart,,50.4324500,4.46295000,,,1,,
8872306_2       ,,Lodelinsart,,50.4324500,4.46295000,,,0,S8872306,2       
8872306_1       ,,Lodelinsart,,50.4324500,4.46295000,,,0,S8872306,1       
8872306,,Lodelinsart,,50.4324500,4.46295000,,,0,S8872306,
S8872413,,Fleurus,,50.4819200,4.54374600,,,1,,
8872413_3       ,,Fleurus,,50.4819200,4.54374600,,,0,S8872413,3       
8872413_2       ,,Fleurus,,50.4819200,4.54374600,,,0,S8872413,2       
8872413_1       ,,Fleurus,,50.4819200,4.54374600,,,0,S8872413,1       
8872413,,Fleurus,,50.4819200,4.54374600,,,0,S8872413,
S8872520,,Ligny,,50.5117300,4.56613400,,,1,,
8872520_1       ,,Ligny,,50.5117300,4.56613400,,,0,S8872520,1       
8872520_2       ,,Ligny,,50.5117300,4.56613400,,,0,S8872520,2       
8872520,,Ligny,,50.5117300,4.56613400,,,0,S8872520,
S8872553,,Tilly,,50.5580800,4.55267400,,,1,,
8872553_1       ,,Tilly,,50.5580800,4.55267400,,,0,S8872553,1       
8872553_2       ,,Tilly,,50.5580800,4.55267400,,,0,S8872553,2       
8872553,,Tilly,,50.5580800,4.55267400,,,0,S8872553,
S8872579,,Villers-La-Ville,,50.5781000,4.53334800,,,1,,
8872579_1       ,,Villers-La-Ville,,50.5781000,4.53334800,,,0,S8872579,1       
8872579_2       ,,Villers-La-Ville,,50.5781000,4.53334800,,,0,S8872579,2       
8872579,,Villers-La-Ville,,50.5781000,4.53334800,,,0,S8872579,
S8872587,,La Roche (brabant),,50.6103400,4.53916000,,,1,,
8872587_1       ,,La Roche (brabant),,50.6103400,4.53916000,,,0,S8872587,1       
8872587_2       ,,La Roche (brabant),,50.6103400,4.53916000,,,0,S8872587,2       
8872587,,La Roche (brabant),,50.6103400,4.53916000,,,0,S8872587,
S8872611,,Faux,,50.6218300,4.54926000,,,1,,
8872611_1       ,,Faux,,50.6218300,4.54926000,,,0,S8872611,1       
8872611_2       ,,Faux,,50.6218300,4.54926000,,,0,S8872611,2       
8872611,,Faux,,50.6218300,4.54926000,,,0,S8872611,
S8873007,,Walcourt,,50.2592200,4.43587700,,,1,,
8873007_1       ,,Walcourt,,50.2592200,4.43587700,,,0,S8873007,1       
8873007_3       ,,Walcourt,,50.2592200,4.43587700,,,0,S8873007,3       
8873007_2       ,,Walcourt,,50.2592200,4.43587700,,,0,S8873007,2       
8873007,,Walcourt,,50.2592200,4.43587700,,,0,S8873007,
S8873122,,Philippeville,,50.1916400,4.53596000,,,1,,
8873122_2       ,,Philippeville,,50.1916400,4.53596000,,,0,S8873122,2       
8873122_1       ,,Philippeville,,50.1916400,4.53596000,,,0,S8873122,1       
8873122,,Philippeville,,50.1916400,4.53596000,,,0,S8873122,
S8873239,,Yves-Gomezee,,50.2369800,4.50040400,,,1,,
8873239_1       ,,Yves-Gomezee,,50.2369800,4.50040400,,,0,S8873239,1       
8873239,,Yves-Gomezee,,50.2369800,4.50040400,,,0,S8873239,
S8873312,,Pry,,50.2692800,4.42880700,,,1,,
8873312_2       ,,Pry,,50.2692800,4.42880700,,,0,S8873312,2       
8873312_1       ,,Pry,,50.2692800,4.42880700,,,0,S8873312,1       
8873312,,Pry,,50.2692800,4.42880700,,,0,S8873312,
S8873320,,Berzee,,50.2856000,4.40590900,,,1,,
8873320_1       ,,Berzee,,50.2856000,4.40590900,,,0,S8873320,1       
8873320_2       ,,Berzee,,50.2856000,4.40590900,,,0,S8873320,2       
8873320,,Berzee,,50.2856000,4.40590900,,,0,S8873320,
S8873379,,Cour-Sur-Heure,,50.3001400,4.39149200,,,1,,
8873379_1       ,,Cour-Sur-Heure,,50.3001400,4.39149200,,,0,S8873379,1       
8873379_2       ,,Cour-Sur-Heure,,50.3001400,4.39149200,,,0,S8873379,2       
8873379,,Cour-Sur-Heure,,50.3001400,4.39149200,,,0,S8873379,
S8873387,,Ham-Sur-Heure,,50.3195600,4.40469800,,,1,,
8873387_1       ,,Ham-Sur-Heure,,50.3195600,4.40469800,,,0,S8873387,1       
8873387_2       ,,Ham-Sur-Heure,,50.3195600,4.40469800,,,0,S8873387,2       
8873387,,Ham-Sur-Heure,,50.3195600,4.40469800,,,0,S8873387,
S8874005,,Chatelet,,50.4101000,4.52186000,,,1,,
8874005_3       ,,Chatelet,,50.4101000,4.52186000,,,0,S8874005,3       
8874005_4       ,,Chatelet,,50.4101000,4.52186000,,,0,S8874005,4       
8874005_2       ,,Chatelet,,50.4101000,4.52186000,,,0,S8874005,2       
8874005_5       ,,Chatelet,,50.4101000,4.52186000,,,0,S8874005,5       
8874005,,Chatelet,,50.4101000,4.52186000,,,0,S8874005,
S8874054,,Couillet,,50.3927200,4.46851200,,,1,,
8874054_3       ,,Couillet,,50.3927200,4.46851200,,,0,S8874054,3       
8874054_2       ,,Couillet,,50.3927200,4.46851200,,,0,S8874054,2       
8874054_4       ,,Couillet,,50.3927200,4.46851200,,,0,S8874054,4       
8874054_1       ,,Couillet,,50.3927200,4.46851200,,,0,S8874054,1       
8874054,,Couillet,,50.3927200,4.46851200,,,0,S8874054,
S8874559,,Le Campinaire,,50.4238300,4.54278700,,,1,,
8874559_2       ,,Le Campinaire,,50.4238300,4.54278700,,,0,S8874559,2       
8874559_1       ,,Le Campinaire,,50.4238300,4.54278700,,,0,S8874559,1       
8874559,,Le Campinaire,,50.4238300,4.54278700,,,0,S8874559,
S8874567,,Farciennes,,50.4291500,4.55265000,,,1,,
8874567_2       ,,Farciennes,,50.4291500,4.55265000,,,0,S8874567,2       
8874567_1       ,,Farciennes,,50.4291500,4.55265000,,,0,S8874567,1       
8874567,,Farciennes,,50.4291500,4.55265000,,,0,S8874567,
S8874583,,Aiseau,,50.4295300,4.58455000,,,1,,
8874583_2       ,,Aiseau,,50.4295300,4.58455000,,,0,S8874583,2       
8874583_1       ,,Aiseau,,50.4295300,4.58455000,,,0,S8874583,1       
8874583,,Aiseau,,50.4295300,4.58455000,,,0,S8874583,
S8874609,,Tamines,,50.4322300,4.60882400,,,1,,
8874609_1       ,,Tamines,,50.4322300,4.60882400,,,0,S8874609,1       
8874609_2       ,,Tamines,,50.4322300,4.60882400,,,0,S8874609,2       
8874609_3       ,,Tamines,,50.4322300,4.60882400,,,0,S8874609,3       
8874609_4       ,,Tamines,,50.4322300,4.60882400,,,0,S8874609,4       
8874609,,Tamines,,50.4322300,4.60882400,,,0,S8874609,
S8874716,,Auvelais,,50.4492000,4.63053400,,,1,,
8874716_1       ,,Auvelais,,50.4492000,4.63053400,,,0,S8874716,1       
8874716_2       ,,Auvelais,,50.4492000,4.63053400,,,0,S8874716,2       
8874716,,Auvelais,,50.4492000,4.63053400,,,0,S8874716,
S8874724,,Jemeppe-Sur-Sambre,,50.4509500,4.66263000,,,1,,
8874724_2       ,,Jemeppe-Sur-Sambre,,50.4509500,4.66263000,,,0,S8874724,2       
8874724_3       ,,Jemeppe-Sur-Sambre,,50.4509500,4.66263000,,,0,S8874724,3       
8874724_4       ,,Jemeppe-Sur-Sambre,,50.4509500,4.66263000,,,0,S8874724,4       
8874724,,Jemeppe-Sur-Sambre,,50.4509500,4.66263000,,,0,S8874724,
S8875002,,Mariembourg,,50.0954900,4.52569000,,,1,,
8875002_2       ,,Mariembourg,,50.0954900,4.52569000,,,0,S8875002,2       
8875002_1       ,,Mariembourg,,50.0954900,4.52569000,,,0,S8875002,1       
8875002,,Mariembourg,,50.0954900,4.52569000,,,0,S8875002,
S8875127,,Couvin,,50.0563200,4.49170000,,,1,,
8875127_2       ,,Couvin,,50.0563200,4.49170000,,,0,S8875127,2       
8875127_1       ,,Couvin,,50.0563200,4.49170000,,,0,S8875127,1       
8875127,,Couvin,,50.0563200,4.49170000,,,0,S8875127,
8879004,,Erquelinnes-Frontiere,,50.3023300,4.10792900,,,0,,
S8881000,,Mons,,50.4538600,3.94254200,,,1,,
8881000_4       ,,Mons,,50.4538600,3.94254200,,,0,S8881000,4       
8881000_5       ,,Mons,,50.4538600,3.94254200,,,0,S8881000,5       
8881000_6       ,,Mons,,50.4538600,3.94254200,,,0,S8881000,6       
8881000_3       ,,Mons,,50.4538600,3.94254200,,,0,S8881000,3       
8881000_7       ,,Mons,,50.4538600,3.94254200,,,0,S8881000,7       
8881000_2       ,,Mons,,50.4538600,3.94254200,,,0,S8881000,2       
8881000_1       ,,Mons,,50.4538600,3.94254200,,,0,S8881000,1       
8881000,,Mons,,50.4538600,3.94254200,,,0,S8881000,
S8881125,,Ghlin,,50.4874100,3.90634000,,,1,,
8881125_2       ,,Ghlin,,50.4874100,3.90634000,,,0,S8881125,2       
8881125_1       ,,Ghlin,,50.4874100,3.90634000,,,0,S8881125,1       
8881125,,Ghlin,,50.4874100,3.90634000,,,0,S8881125,
S8881158,,Erbisoeul,,50.5070200,3.88799100,,,1,,
8881158_2       ,,Erbisoeul,,50.5070200,3.88799100,,,0,S8881158,2       
8881158_1       ,,Erbisoeul,,50.5070200,3.88799100,,,0,S8881158,1       
8881158,,Erbisoeul,,50.5070200,3.88799100,,,0,S8881158,
S8881166,,Jurbise,,50.5305000,3.91069000,,,1,,
8881166_2       ,,Jurbise,,50.5305000,3.91069000,,,0,S8881166,2       
8881166_1       ,,Jurbise,,50.5305000,3.91069000,,,0,S8881166,1       
8881166_3       ,,Jurbise,,50.5305000,3.91069000,,,0,S8881166,3       
8881166_4       ,,Jurbise,,50.5305000,3.91069000,,,0,S8881166,4       
8881166_5       ,,Jurbise,,50.5305000,3.91069000,,,0,S8881166,5       
8881166,,Jurbise,,50.5305000,3.91069000,,,0,S8881166,
S8881174,,Masnuy-Saint-Pierre,,50.5365500,3.96214000,,,1,,
8881174_1       ,,Masnuy-Saint-Pierre,,50.5365500,3.96214000,,,0,S8881174,1       
8881174_2       ,,Masnuy-Saint-Pierre,,50.5365500,3.96214000,,,0,S8881174,2       
8881174,,Masnuy-Saint-Pierre,,50.5365500,3.96214000,,,0,S8881174,
S8881190,,Lens,,50.5593400,3.90322600,,,1,,
8881190_1       ,,Lens,,50.5593400,3.90322600,,,0,S8881190,1       
8881190_2       ,,Lens,,50.5593400,3.90322600,,,0,S8881190,2       
8881190,,Lens,,50.5593400,3.90322600,,,0,S8881190,
S8881315,,Nimy,,50.4716400,3.95609300,,,1,,
8881315_2       ,,Nimy,,50.4716400,3.95609300,,,0,S8881315,2       
8881315_1       ,,Nimy,,50.4716400,3.95609300,,,0,S8881315,1       
8881315,,Nimy,,50.4716400,3.95609300,,,0,S8881315,
S8881406,,Obourg,,50.4698800,4.00780800,,,1,,
8881406_2       ,,Obourg,,50.4698800,4.00780800,,,0,S8881406,2       
8881406_1       ,,Obourg,,50.4698800,4.00780800,,,0,S8881406,1       
8881406,,Obourg,,50.4698800,4.00780800,,,0,S8881406,
S8881430,,Havre,,50.4707500,4.05998700,,,1,,
8881430_2       ,,Havre,,50.4707500,4.05998700,,,0,S8881430,2       
8881430_1       ,,Havre,,50.4707500,4.05998700,,,0,S8881430,1       
8881430,,Havre,,50.4707500,4.05998700,,,0,S8881430,
S8881455,,Thieu,,50.4695400,4.09852000,,,1,,
8881455_2       ,,Thieu,,50.4695400,4.09852000,,,0,S8881455,2       
8881455_1       ,,Thieu,,50.4695400,4.09852000,,,0,S8881455,1       
8881455,,Thieu,,50.4695400,4.09852000,,,0,S8881455,
S8881463,,Bracquegnies,,50.4744600,4.12634900,,,1,,
8881463_2       ,,Bracquegnies,,50.4744600,4.12634900,,,0,S8881463,2       
8881463_1       ,,Bracquegnies,,50.4744600,4.12634900,,,0,S8881463,1       
8881463,,Bracquegnies,,50.4744600,4.12634900,,,0,S8881463,
S8881505,,Quevy,,50.3415300,3.90948900,,,1,,
8881505_B       ,,Quevy,,50.3415300,3.90948900,,,0,S8881505,B       
8881505_C       ,,Quevy,,50.3415300,3.90948900,,,0,S8881505,C       
8881505_A       ,,Quevy,,50.3415300,3.90948900,,,0,S8881505,A       
8881505,,Quevy,,50.3415300,3.90948900,,,0,S8881505,
S8881562,,Genly,,50.3906400,3.91164000,,,1,,
8881562_2       ,,Genly,,50.3906400,3.91164000,,,0,S8881562,2       
8881562_1       ,,Genly,,50.3906400,3.91164000,,,0,S8881562,1       
8881562,,Genly,,50.3906400,3.91164000,,,0,S8881562,
S8881570,,Frameries,,50.4059300,3.90659000,,,1,,
8881570_2       ,,Frameries,,50.4059300,3.90659000,,,0,S8881570,2       
8881570_1       ,,Frameries,,50.4059300,3.90659000,,,0,S8881570,1       
8881570,,Frameries,,50.4059300,3.90659000,,,0,S8881570,
S8882107,,La Louviere- Centre,,50.4781600,4.17986000,,,1,,
8882107_3       ,,La Louviere- Centre,,50.4781600,4.17986000,,,0,S8882107,3       
8882107_2       ,,La Louviere- Centre,,50.4781600,4.17986000,,,0,S8882107,2       
8882107_1       ,,La Louviere- Centre,,50.4781600,4.17986000,,,0,S8882107,1       
8882107,,La Louviere- Centre,,50.4781600,4.17986000,,,0,S8882107,
S8882206,,La Louviere-Sud,,50.4649800,4.19061100,,,1,,
8882206_4       ,,La Louviere-Sud,,50.4649800,4.19061100,,,0,S8882206,4       
8882206_1       ,,La Louviere-Sud,,50.4649800,4.19061100,,,0,S8882206,1       
8882206_3       ,,La Louviere-Sud,,50.4649800,4.19061100,,,0,S8882206,3       
8882206_5       ,,La Louviere-Sud,,50.4649800,4.19061100,,,0,S8882206,5       
8882206_2       ,,La Louviere-Sud,,50.4649800,4.19061100,,,0,S8882206,2       
8882206,,La Louviere-Sud,,50.4649800,4.19061100,,,0,S8882206,
S8882230,,Morlanwelz,,50.4580000,4.24737000,,,1,,
8882230_1       ,,Morlanwelz,,50.4580000,4.24737000,,,0,S8882230,1       
8882230_2       ,,Morlanwelz,,50.4580000,4.24737000,,,0,S8882230,2       
8882230,,Morlanwelz,,50.4580000,4.24737000,,,0,S8882230,
S8882248,,Carnieres,,50.4479600,4.26382900,,,1,,
8882248_1       ,,Carnieres,,50.4479600,4.26382900,,,0,S8882248,1       
8882248_2       ,,Carnieres,,50.4479600,4.26382900,,,0,S8882248,2       
8882248,,Carnieres,,50.4479600,4.26382900,,,0,S8882248,
S8882339,,Leval,,50.4308000,4.21104000,,,1,,
8882339_1       ,,Leval,,50.4308000,4.21104000,,,0,S8882339,1       
8882339,,Leval,,50.4308000,4.21104000,,,0,S8882339,
S8882362,,Binche,,50.4087600,4.17245000,,,1,,
8882362_1       ,,Binche,,50.4087600,4.17245000,,,0,S8882362,1       
8882362_3       ,,Binche,,50.4087600,4.17245000,,,0,S8882362,3       
8882362_2       ,,Binche,,50.4087600,4.17245000,,,0,S8882362,2       
8882362,,Binche,,50.4087600,4.17245000,,,0,S8882362,
S8882701,,Manage,,50.5061100,4.23468000,,,1,,
8882701_4       ,,Manage,,50.5061100,4.23468000,,,0,S8882701,4       
8882701_2       ,,Manage,,50.5061100,4.23468000,,,0,S8882701,2       
8882701_1       ,,Manage,,50.5061100,4.23468000,,,0,S8882701,1       
8882701_3       ,,Manage,,50.5061100,4.23468000,,,0,S8882701,3       
8882701_5       ,,Manage,,50.5061100,4.23468000,,,0,S8882701,5       
8882701,,Manage,,50.5061100,4.23468000,,,0,S8882701,
S8883006,,Braine-Le-Comte,,50.6050800,4.13766000,,,1,,
8883006_7       ,,Braine-Le-Comte,,50.6050800,4.13766000,,,0,S8883006,7       
8883006_5       ,,Braine-Le-Comte,,50.6050800,4.13766000,,,0,S8883006,5       
8883006_6       ,,Braine-Le-Comte,,50.6050800,4.13766000,,,0,S8883006,6       
8883006_4       ,,Braine-Le-Comte,,50.6050800,4.13766000,,,0,S8883006,4       
8883006_8       ,,Braine-Le-Comte,,50.6050800,4.13766000,,,0,S8883006,8       
8883006_9       ,,Braine-Le-Comte,,50.6050800,4.13766000,,,0,S8883006,9       
8883006_1       ,,Braine-Le-Comte,,50.6050800,4.13766000,,,0,S8883006,1       
8883006_2       ,,Braine-Le-Comte,,50.6050800,4.13766000,,,0,S8883006,2       
8883006_3       ,,Braine-Le-Comte,,50.6050800,4.13766000,,,0,S8883006,3       
8883006,,Braine-Le-Comte,,50.6050800,4.13766000,,,0,S8883006,
S8883022,,Hennuyeres,,50.6510100,4.17589000,,,1,,
8883022_1       ,,Hennuyeres,,50.6510100,4.17589000,,,0,S8883022,1       
8883022_2       ,,Hennuyeres,,50.6510100,4.17589000,,,0,S8883022,2       
8883022,,Hennuyeres,,50.6510100,4.17589000,,,0,S8883022,
S8883113,,Soignies,,50.5727700,4.06751800,,,1,,
8883113_1       ,,Soignies,,50.5727700,4.06751800,,,0,S8883113,1       
8883113_2       ,,Soignies,,50.5727700,4.06751800,,,0,S8883113,2       
8883113_3       ,,Soignies,,50.5727700,4.06751800,,,0,S8883113,3       
8883113,,Soignies,,50.5727700,4.06751800,,,0,S8883113,
S8883121,,Neufvilles,,50.5436000,4.01067000,,,1,,
8883121_1       ,,Neufvilles,,50.5436000,4.01067000,,,0,S8883121,1       
8883121_2       ,,Neufvilles,,50.5436000,4.01067000,,,0,S8883121,2       
8883121,,Neufvilles,,50.5436000,4.01067000,,,0,S8883121,
S8883212,,Ecaussinnes,,50.5623900,4.15663700,,,1,,
8883212_2       ,,Ecaussinnes,,50.5623900,4.15663700,,,0,S8883212,2       
8883212_1       ,,Ecaussinnes,,50.5623900,4.15663700,,,0,S8883212,1       
8883212,,Ecaussinnes,,50.5623900,4.15663700,,,0,S8883212,
S8883220,,Marche-Lez-Ecaussinnes,,50.5461700,4.17710200,,,1,,
8883220_2       ,,Marche-Lez-Ecaussinnes,,50.5461700,4.17710200,,,0,S8883220,2       
8883220_1       ,,Marche-Lez-Ecaussinnes,,50.5461700,4.17710200,,,0,S8883220,1       
8883220,,Marche-Lez-Ecaussinnes,,50.5461700,4.17710200,,,0,S8883220,
S8883238,,Familleureux,,50.5193600,4.21158000,,,1,,
8883238_2       ,,Familleureux,,50.5193600,4.21158000,,,0,S8883238,2       
8883238_1       ,,Familleureux,,50.5193600,4.21158000,,,0,S8883238,1       
8883238,,Familleureux,,50.5193600,4.21158000,,,0,S8883238,
S8883311,,Enghien,,50.6972700,4.04735900,,,1,,
8883311_4       ,,Enghien,,50.6972700,4.04735900,,,0,S8883311,4       
8883311_3       ,,Enghien,,50.6972700,4.04735900,,,0,S8883311,3       
8883311_5       ,,Enghien,,50.6972700,4.04735900,,,0,S8883311,5       
8883311_1       ,,Enghien,,50.6972700,4.04735900,,,0,S8883311,1       
8883311_2       ,,Enghien,,50.6972700,4.04735900,,,0,S8883311,2       
8883311,,Enghien,,50.6972700,4.04735900,,,0,S8883311,
S8883436,,Silly,,50.6623800,3.93586100,,,1,,
8883436_1       ,,Silly,,50.6623800,3.93586100,,,0,S8883436,1       
8883436_2       ,,Silly,,50.6623800,3.93586100,,,0,S8883436,2       
8883436,,Silly,,50.6623800,3.93586100,,,0,S8883436,
S8883808,,Tubize,,50.6917100,4.20573000,,,1,,
8883808_1       ,,Tubize,,50.6917100,4.20573000,,,0,S8883808,1       
8883808_2       ,,Tubize,,50.6917100,4.20573000,,,0,S8883808,2       
8883808,,Tubize,,50.6917100,4.20573000,,,0,S8883808,
S8884004,,Saint-Ghislain,,50.4428600,3.82025500,,,1,,
8884004_2       ,,Saint-Ghislain,,50.4428600,3.82025500,,,0,S8884004,2       
8884004_1       ,,Saint-Ghislain,,50.4428600,3.82025500,,,0,S8884004,1       
8884004_3       ,,Saint-Ghislain,,50.4428600,3.82025500,,,0,S8884004,3       
8884004_4       ,,Saint-Ghislain,,50.4428600,3.82025500,,,0,S8884004,4       
8884004_5       ,,Saint-Ghislain,,50.4428600,3.82025500,,,0,S8884004,5       
8884004,,Saint-Ghislain,,50.4428600,3.82025500,,,0,S8884004,
S8884319,,Boussu,,50.4363800,3.79702700,,,1,,
8884319_1       ,,Boussu,,50.4363800,3.79702700,,,0,S8884319,1       
8884319,,Boussu,,50.4363800,3.79702700,,,0,S8884319,
S8884327,,Hainin,,50.4280200,3.76689300,,,1,,
8884327_1       ,,Hainin,,50.4280200,3.76689300,,,0,S8884327,1       
8884327,,Hainin,,50.4280200,3.76689300,,,0,S8884327,
S8884335,,Quievrain,,50.4101100,3.68608000,,,1,,
8884335_1       ,,Quievrain,,50.4101100,3.68608000,,,0,S8884335,1       
8884335_2       ,,Quievrain,,50.4101100,3.68608000,,,0,S8884335,2       
8884335_3       ,,Quievrain,,50.4101100,3.68608000,,,0,S8884335,3       
8884335,,Quievrain,,50.4101100,3.68608000,,,0,S8884335,
S8884350,,Thulin,,50.4233300,3.74470800,,,1,,
8884350_1       ,,Thulin,,50.4233300,3.74470800,,,0,S8884350,1       
8884350,,Thulin,,50.4233300,3.74470800,,,0,S8884350,
S8884541,,Quaregnon,,50.4498300,3.85654100,,,1,,
8884541_2       ,,Quaregnon,,50.4498300,3.85654100,,,0,S8884541,2       
8884541_1       ,,Quaregnon,,50.4498300,3.85654100,,,0,S8884541,1       
8884541,,Quaregnon,,50.4498300,3.85654100,,,0,S8884541,
S8884566,,Jemappes,,50.4525800,3.88558300,,,1,,
8884566_2       ,,Jemappes,,50.4525800,3.88558300,,,0,S8884566,2       
8884566_1       ,,Jemappes,,50.4525800,3.88558300,,,0,S8884566,1       
8884566,,Jemappes,,50.4525800,3.88558300,,,0,S8884566,
S8884632,,Ville-Pommeroeul,,50.4645400,3.72424500,,,1,,
8884632_2       ,,Ville-Pommeroeul,,50.4645400,3.72424500,,,0,S8884632,2       
8884632_1       ,,Ville-Pommeroeul,,50.4645400,3.72424500,,,0,S8884632,1       
8884632,,Ville-Pommeroeul,,50.4645400,3.72424500,,,0,S8884632,
S8884640,,Harchies,,50.4825700,3.69876800,,,1,,
8884640_2       ,,Harchies,,50.4825700,3.69876800,,,0,S8884640,2       
8884640_1       ,,Harchies,,50.4825700,3.69876800,,,0,S8884640,1       
8884640,,Harchies,,50.4825700,3.69876800,,,0,S8884640,
S8884715,,Blaton,,50.5054600,3.66630800,,,1,,
8884715_2       ,,Blaton,,50.5054600,3.66630800,,,0,S8884715,2       
8884715_1       ,,Blaton,,50.5054600,3.66630800,,,0,S8884715,1       
8884715_3       ,,Blaton,,50.5054600,3.66630800,,,0,S8884715,3       
8884715,,Blaton,,50.5054600,3.66630800,,,0,S8884715,
S8884855,,Peruwelz,,50.5137000,3.59277700,,,1,,
8884855_2       ,,Peruwelz,,50.5137000,3.59277700,,,0,S8884855,2       
8884855_1       ,,Peruwelz,,50.5137000,3.59277700,,,0,S8884855,1       
8884855,,Peruwelz,,50.5137000,3.59277700,,,0,S8884855,
S8884889,,Callenelle,,50.5273600,3.52617800,,,1,,
8884889_2       ,,Callenelle,,50.5273600,3.52617800,,,0,S8884889,2       
8884889_1       ,,Callenelle,,50.5273600,3.52617800,,,0,S8884889,1       
8884889,,Callenelle,,50.5273600,3.52617800,,,0,S8884889,
S8885001,,Tournai,,50.6131300,3.39694000,,,1,,
8885001_5       ,,Tournai,,50.6131300,3.39694000,,,0,S8885001,5       
8885001_1       ,,Tournai,,50.6131300,3.39694000,,,0,S8885001,1       
8885001_4       ,,Tournai,,50.6131300,3.39694000,,,0,S8885001,4       
8885001_3       ,,Tournai,,50.6131300,3.39694000,,,0,S8885001,3       
8885001_A       ,,Tournai,,50.6131300,3.39694000,,,0,S8885001,A       
8885001_2       ,,Tournai,,50.6131300,3.39694000,,,0,S8885001,2       
8885001,,Tournai,,50.6131300,3.39694000,,,0,S8885001,
S8885068,,Froyennes,,50.6298900,3.35483500,,,1,,
8885068_1       ,,Froyennes,,50.6298900,3.35483500,,,0,S8885068,1       
8885068_2       ,,Froyennes,,50.6298900,3.35483500,,,0,S8885068,2       
8885068,,Froyennes,,50.6298900,3.35483500,,,0,S8885068,
S8885522,,Antoing,,50.5696300,3.45131000,,,1,,
8885522_2       ,,Antoing,,50.5696300,3.45131000,,,0,S8885522,2       
8885522_1       ,,Antoing,,50.5696300,3.45131000,,,0,S8885522,1       
8885522,,Antoing,,50.5696300,3.45131000,,,0,S8885522,
S8885530,,Maubray,,50.5475600,3.49552300,,,1,,
8885530_2       ,,Maubray,,50.5475600,3.49552300,,,0,S8885530,2       
8885530_1       ,,Maubray,,50.5475600,3.49552300,,,0,S8885530,1       
8885530,,Maubray,,50.5475600,3.49552300,,,0,S8885530,
S8885704,,Mouscron,,50.7410000,3.22844900,,,1,,
8885704_3       ,,Mouscron,,50.7410000,3.22844900,,,0,S8885704,3       
8885704_4       ,,Mouscron,,50.7410000,3.22844900,,,0,S8885704,4       
8885704_5       ,,Mouscron,,50.7410000,3.22844900,,,0,S8885704,5       
8885704_2       ,,Mouscron,,50.7410000,3.22844900,,,0,S8885704,2       
8885704_1       ,,Mouscron,,50.7410000,3.22844900,,,0,S8885704,1       
8885704,,Mouscron,,50.7410000,3.22844900,,,0,S8885704,
S8885753,,Herseaux,,50.7139000,3.24596100,,,1,,
8885753_1       ,,Herseaux,,50.7139000,3.24596100,,,0,S8885753,1       
8885753_2       ,,Herseaux,,50.7139000,3.24596100,,,0,S8885753,2       
8885753,,Herseaux,,50.7139000,3.24596100,,,0,S8885753,
S8886009,,Ath,,50.6269400,3.77742800,,,1,,
8886009_1       ,,Ath,,50.6269400,3.77742800,,,0,S8886009,1       
8886009_2       ,,Ath,,50.6269400,3.77742800,,,0,S8886009,2       
8886009_3       ,,Ath,,50.6269400,3.77742800,,,0,S8886009,3       
8886009_4       ,,Ath,,50.6269400,3.77742800,,,0,S8886009,4       
8886009_5       ,,Ath,,50.6269400,3.77742800,,,0,S8886009,5       
8886009,,Ath,,50.6269400,3.77742800,,,0,S8886009,
S8886041,,Maffle,,50.6143500,3.80011700,,,1,,
8886041_1       ,,Maffle,,50.6143500,3.80011700,,,0,S8886041,1       
8886041_2       ,,Maffle,,50.6143500,3.80011700,,,0,S8886041,2       
8886041,,Maffle,,50.6143500,3.80011700,,,0,S8886041,
S8886058,,Mevergnies-Attre,,50.6001100,3.83391900,,,1,,
8886058_1       ,,Mevergnies-Attre,,50.6001100,3.83391900,,,0,S8886058,1       
8886058_2       ,,Mevergnies-Attre,,50.6001100,3.83391900,,,0,S8886058,2       
8886058,,Mevergnies-Attre,,50.6001100,3.83391900,,,0,S8886058,
S8886066,,Brugelette,,50.5942300,3.85255100,,,1,,
8886066_1       ,,Brugelette,,50.5942300,3.85255100,,,0,S8886066,1       
8886066_2       ,,Brugelette,,50.5942300,3.85255100,,,0,S8886066,2       
8886066,,Brugelette,,50.5942300,3.85255100,,,0,S8886066,
S8886074,,Cambron-Casteau,,50.5867600,3.87481000,,,1,,
8886074_2       ,,Cambron-Casteau,,50.5867600,3.87481000,,,0,S8886074,2       
8886074_1       ,,Cambron-Casteau,,50.5867600,3.87481000,,,0,S8886074,1       
8886074,,Cambron-Casteau,,50.5867600,3.87481000,,,0,S8886074,
S8886348,,Leuze,,50.6006100,3.61687600,,,1,,
8886348_2       ,,Leuze,,50.6006100,3.61687600,,,0,S8886348,2       
8886348_1       ,,Leuze,,50.6006100,3.61687600,,,0,S8886348,1       
8886348_3       ,,Leuze,,50.6006100,3.61687600,,,0,S8886348,3       
8886348,,Leuze,,50.6006100,3.61687600,,,0,S8886348,
S8886504,,Lessines,,50.7120100,3.83643400,,,1,,
8886504_1       ,,Lessines,,50.7120100,3.83643400,,,0,S8886504,1       
8886504_2       ,,Lessines,,50.7120100,3.83643400,,,0,S8886504,2       
8886504_3       ,,Lessines,,50.7120100,3.83643400,,,0,S8886504,3       
8886504,,Lessines,,50.7120100,3.83643400,,,0,S8886504,
S8886546,,Acren,,50.7331000,3.84709000,,,1,,
8886546_1       ,,Acren,,50.7331000,3.84709000,,,0,S8886546,1       
8886546_2       ,,Acren,,50.7331000,3.84709000,,,0,S8886546,2       
8886546,,Acren,,50.7331000,3.84709000,,,0,S8886546,
S8886553,,Houraing,,50.7030600,3.83517400,,,1,,
8886553_1       ,,Houraing,,50.7030600,3.83517400,,,0,S8886553,1       
8886553_2       ,,Houraing,,50.7030600,3.83517400,,,0,S8886553,2       
8886553,,Houraing,,50.7030600,3.83517400,,,0,S8886553,
S8886561,,Papignies,,50.6865800,3.82341000,,,1,,
8886561_1       ,,Papignies,,50.6865800,3.82341000,,,0,S8886561,1       
8886561_2       ,,Papignies,,50.6865800,3.82341000,,,0,S8886561,2       
8886561,,Papignies,,50.6865800,3.82341000,,,0,S8886561,
S8886587,,Rebaix,,50.6612400,3.79362400,,,1,,
8886587_1       ,,Rebaix,,50.6612400,3.79362400,,,0,S8886587,1       
8886587_2       ,,Rebaix,,50.6612400,3.79362400,,,0,S8886587,2       
8886587,,Rebaix,,50.6612400,3.79362400,,,0,S8886587,
8889011,,Mouscron-Frontiere,,50.7217200,3.19608600,,,0,,
8889045,,Blandain-Frontiere,,50.6174900,3.26373000,,,0,,
S8891009,,Bruges,,51.1972300,3.21673000,,,1,,
8891009_7       ,,Bruges,,51.1972300,3.21673000,,,0,S8891009,7       
8891009_8       ,,Bruges,,51.1972300,3.21673000,,,0,S8891009,8       
8891009_6       ,,Bruges,,51.1972300,3.21673000,,,0,S8891009,6       
8891009_2       ,,Bruges,,51.1972300,3.21673000,,,0,S8891009,2       
8891009_5       ,,Bruges,,51.1972300,3.21673000,,,0,S8891009,5       
8891009_4       ,,Bruges,,51.1972300,3.21673000,,,0,S8891009,4       
8891009_10      ,,Bruges,,51.1972300,3.21673000,,,0,S8891009,10      
8891009_9       ,,Bruges,,51.1972300,3.21673000,,,0,S8891009,9       
8891009_1       ,,Bruges,,51.1972300,3.21673000,,,0,S8891009,1       
8891009_3       ,,Bruges,,51.1972300,3.21673000,,,0,S8891009,3       
8891009,,Bruges,,51.1972300,3.21673000,,,0,S8891009,
S8891033,,Bruges-Saint-Pierre,,51.2231200,3.20179600,,,1,,
8891033_2       ,,Bruges-Saint-Pierre,,51.2231200,3.20179600,,,0,S8891033,2       
8891033_1       ,,Bruges-Saint-Pierre,,51.2231200,3.20179600,,,0,S8891033,1       
8891033,,Bruges-Saint-Pierre,,51.2231200,3.20179600,,,0,S8891033,
S8891116,,Oostkamp,,51.1541100,3.25747000,,,1,,
8891116_1       ,,Oostkamp,,51.1541100,3.25747000,,,0,S8891116,1       
8891116_4       ,,Oostkamp,,51.1541100,3.25747000,,,0,S8891116,4       
8891116,,Oostkamp,,51.1541100,3.25747000,,,0,S8891116,
S8891124,,Beernem,,51.1280100,3.32989000,,,1,,
8891124_2       ,,Beernem,,51.1280100,3.32989000,,,0,S8891124,2       
8891124_1       ,,Beernem,,51.1280100,3.32989000,,,0,S8891124,1       
8891124,,Beernem,,51.1280100,3.32989000,,,0,S8891124,
S8891132,,Maria-Aalter,,51.1076100,3.38673000,,,1,,
8891132_2       ,,Maria-Aalter,,51.1076100,3.38673000,,,0,S8891132,2       
8891132_3       ,,Maria-Aalter,,51.1076100,3.38673000,,,0,S8891132,3       
8891132,,Maria-Aalter,,51.1076100,3.38673000,,,0,S8891132,
S8891140,,Aalter,,51.0923000,3.44784800,,,1,,
8891140_2       ,,Aalter,,51.0923000,3.44784800,,,0,S8891140,2       
8891140_3       ,,Aalter,,51.0923000,3.44784800,,,0,S8891140,3       
8891140_1       ,,Aalter,,51.0923000,3.44784800,,,0,S8891140,1       
8891140_4       ,,Aalter,,51.0923000,3.44784800,,,0,S8891140,4       
8891140,,Aalter,,51.0923000,3.44784800,,,0,S8891140,
S8891157,,Bellem,,51.0839100,3.48737000,,,1,,
8891157_2       ,,Bellem,,51.0839100,3.48737000,,,0,S8891157,2       
8891157_3       ,,Bellem,,51.0839100,3.48737000,,,0,S8891157,3       
8891157,,Bellem,,51.0839100,3.48737000,,,0,S8891157,
S8891165,,Hansbeke,,51.0732100,3.53621000,,,1,,
8891165_2       ,,Hansbeke,,51.0732100,3.53621000,,,0,S8891165,2       
8891165_3       ,,Hansbeke,,51.0732100,3.53621000,,,0,S8891165,3       
8891165,,Hansbeke,,51.0732100,3.53621000,,,0,S8891165,
S8891173,,Zeebrugge-Strand,,51.3305000,3.18402800,,,1,,
8891173_1       ,,Zeebrugge-Strand,,51.3305000,3.18402800,,,0,S8891173,1       
8891173,,Zeebrugge-Strand,,51.3305000,3.18402800,,,0,S8891173,
S8891264,,Zedelgem,,51.1270500,3.16414200,,,1,,
8891264_1       ,,Zedelgem,,51.1270500,3.16414200,,,0,S8891264,1       
8891264_2       ,,Zedelgem,,51.1270500,3.16414200,,,0,S8891264,2       
8891264,,Zedelgem,,51.1270500,3.16414200,,,0,S8891264,
S8891314,,Torhout,,51.0647100,3.10587000,,,1,,
8891314_2       ,,Torhout,,51.0647100,3.10587000,,,0,S8891314,2       
8891314_1       ,,Torhout,,51.0647100,3.10587000,,,0,S8891314,1       
8891314,,Torhout,,51.0647100,3.10587000,,,0,S8891314,
S8891405,,Blankenberge,,51.3124300,3.13386000,,,1,,
8891405_2       ,,Blankenberge,,51.3124300,3.13386000,,,0,S8891405,2       
8891405_6       ,,Blankenberge,,51.3124300,3.13386000,,,0,S8891405,6       
8891405_7       ,,Blankenberge,,51.3124300,3.13386000,,,0,S8891405,7       
8891405_1       ,,Blankenberge,,51.3124300,3.13386000,,,0,S8891405,1       
8891405_5       ,,Blankenberge,,51.3124300,3.13386000,,,0,S8891405,5       
8891405_3       ,,Blankenberge,,51.3124300,3.13386000,,,0,S8891405,3       
8891405_4       ,,Blankenberge,,51.3124300,3.13386000,,,0,S8891405,4       
8891405,,Blankenberge,,51.3124300,3.13386000,,,0,S8891405,
S8891553,,Zeebrugge-Dorp,,51.3263800,3.19517100,,,1,,
8891553_1       ,,Zeebrugge-Dorp,,51.3263800,3.19517100,,,0,S8891553,1       
8891553,,Zeebrugge-Dorp,,51.3263800,3.19517100,,,0,S8891553,
S8891629,,Lissewege,,51.2947100,3.19451000,,,1,,
8891629_2       ,,Lissewege,,51.2947100,3.19451000,,,0,S8891629,2       
8891629_1       ,,Lissewege,,51.2947100,3.19451000,,,0,S8891629,1       
8891629,,Lissewege,,51.2947100,3.19451000,,,0,S8891629,
S8891645,,Heist,,51.3339800,3.23918200,,,1,,
8891645_1       ,,Heist,,51.3339800,3.23918200,,,0,S8891645,1       
8891645_2       ,,Heist,,51.3339800,3.23918200,,,0,S8891645,2       
8891645,,Heist,,51.3339800,3.23918200,,,0,S8891645,
S8891652,,Duinbergen,,51.3382000,3.26359100,,,1,,
8891652_1       ,,Duinbergen,,51.3382000,3.26359100,,,0,S8891652,1       
8891652_2       ,,Duinbergen,,51.3382000,3.26359100,,,0,S8891652,2       
8891652,,Duinbergen,,51.3382000,3.26359100,,,0,S8891652,
S8891660,,Knokke,,51.3399000,3.28519000,,,1,,
8891660_1       ,,Knokke,,51.3399000,3.28519000,,,0,S8891660,1       
8891660_3       ,,Knokke,,51.3399000,3.28519000,,,0,S8891660,3       
8891660_2       ,,Knokke,,51.3399000,3.28519000,,,0,S8891660,2       
8891660,,Knokke,,51.3399000,3.28519000,,,0,S8891660,
S8891702,,Ostende,,51.2282100,2.92581000,,,1,,
8891702_9       ,,Ostende,,51.2282100,2.92581000,,,0,S8891702,9       
8891702_10      ,,Ostende,,51.2282100,2.92581000,,,0,S8891702,10      
8891702_8       ,,Ostende,,51.2282100,2.92581000,,,0,S8891702,8       
8891702_6       ,,Ostende,,51.2282100,2.92581000,,,0,S8891702,6       
8891702_4       ,,Ostende,,51.2282100,2.92581000,,,0,S8891702,4       
8891702_5       ,,Ostende,,51.2282100,2.92581000,,,0,S8891702,5       
8891702_7       ,,Ostende,,51.2282100,2.92581000,,,0,S8891702,7       
8891702_3       ,,Ostende,,51.2282100,2.92581000,,,0,S8891702,3       
8891702,,Ostende,,51.2282100,2.92581000,,,0,S8891702,
S8892007,,Gand-Saint-Pierre,,51.0359000,3.71067300,,,1,,
8892007_11      ,,Gand-Saint-Pierre,,51.0359000,3.71067300,,,0,S8892007,11      
8892007_5       ,,Gand-Saint-Pierre,,51.0359000,3.71067300,,,0,S8892007,5       
8892007_9       ,,Gand-Saint-Pierre,,51.0359000,3.71067300,,,0,S8892007,9       
8892007_4       ,,Gand-Saint-Pierre,,51.0359000,3.71067300,,,0,S8892007,4       
8892007_2       ,,Gand-Saint-Pierre,,51.0359000,3.71067300,,,0,S8892007,2       
8892007_8       ,,Gand-Saint-Pierre,,51.0359000,3.71067300,,,0,S8892007,8       
8892007_10      ,,Gand-Saint-Pierre,,51.0359000,3.71067300,,,0,S8892007,10      
8892007_12      ,,Gand-Saint-Pierre,,51.0359000,3.71067300,,,0,S8892007,12      
8892007_1       ,,Gand-Saint-Pierre,,51.0359000,3.71067300,,,0,S8892007,1       
8892007_3       ,,Gand-Saint-Pierre,,51.0359000,3.71067300,,,0,S8892007,3       
8892007,,Gand-Saint-Pierre,,51.0359000,3.71067300,,,0,S8892007,
S8892031,,Tronchiennes,,51.0472900,3.65520100,,,1,,
8892031_1       ,,Tronchiennes,,51.0472900,3.65520100,,,0,S8892031,1       
8892031_2       ,,Tronchiennes,,51.0472900,3.65520100,,,0,S8892031,2       
8892031_4       ,,Tronchiennes,,51.0472900,3.65520100,,,0,S8892031,4       
8892031_3       ,,Tronchiennes,,51.0472900,3.65520100,,,0,S8892031,3       
8892031,,Tronchiennes,,51.0472900,3.65520100,,,0,S8892031,
S8892056,,Landegem,,51.0643100,3.57685600,,,1,,
8892056_1       ,,Landegem,,51.0643100,3.57685600,,,0,S8892056,1       
8892056_2       ,,Landegem,,51.0643100,3.57685600,,,0,S8892056,2       
8892056_4       ,,Landegem,,51.0643100,3.57685600,,,0,S8892056,4       
8892056_3       ,,Landegem,,51.0643100,3.57685600,,,0,S8892056,3       
8892056,,Landegem,,51.0643100,3.57685600,,,0,S8892056,
S8892080,,De Pinte,,50.9970600,3.65046700,,,1,,
8892080_4       ,,De Pinte,,50.9970600,3.65046700,,,0,S8892080,4       
8892080_3       ,,De Pinte,,50.9970600,3.65046700,,,0,S8892080,3       
8892080_2       ,,De Pinte,,50.9970600,3.65046700,,,0,S8892080,2       
8892080_1       ,,De Pinte,,50.9970600,3.65046700,,,0,S8892080,1       
8892080,,De Pinte,,50.9970600,3.65046700,,,0,S8892080,
S8892106,,Deinze,,50.9782600,3.53443500,,,1,,
8892106_1       ,,Deinze,,50.9782600,3.53443500,,,0,S8892106,1       
8892106_2       ,,Deinze,,50.9782600,3.53443500,,,0,S8892106,2       
8892106_4       ,,Deinze,,50.9782600,3.53443500,,,0,S8892106,4       
8892106_5       ,,Deinze,,50.9782600,3.53443500,,,0,S8892106,5       
8892106_3       ,,Deinze,,50.9782600,3.53443500,,,0,S8892106,3       
8892106,,Deinze,,50.9782600,3.53443500,,,0,S8892106,
S8892205,,Lichtervelde,,51.0251600,3.12720900,,,1,,
8892205_3       ,,Lichtervelde,,51.0251600,3.12720900,,,0,S8892205,3       
8892205_4       ,,Lichtervelde,,51.0251600,3.12720900,,,0,S8892205,4       
8892205_1       ,,Lichtervelde,,51.0251600,3.12720900,,,0,S8892205,1       
8892205_2       ,,Lichtervelde,,51.0251600,3.12720900,,,0,S8892205,2       
8892205_5       ,,Lichtervelde,,51.0251600,3.12720900,,,0,S8892205,5       
8892205,,Lichtervelde,,51.0251600,3.12720900,,,0,S8892205,
S8892254,,Tielt,,50.9908400,3.33034000,,,1,,
8892254_1       ,,Tielt,,50.9908400,3.33034000,,,0,S8892254,1       
8892254_2       ,,Tielt,,50.9908400,3.33034000,,,0,S8892254,2       
8892254,,Tielt,,50.9908400,3.33034000,,,0,S8892254,
S8892288,,Aarsele,,50.9844600,3.41836000,,,1,,
8892288_1       ,,Aarsele,,50.9844600,3.41836000,,,0,S8892288,1       
8892288_2       ,,Aarsele,,50.9844600,3.41836000,,,0,S8892288,2       
8892288,,Aarsele,,50.9844600,3.41836000,,,0,S8892288,
S8892304,,Furnes,,51.0738700,2.66994000,,,1,,
8892304_1       ,,Furnes,,51.0738700,2.66994000,,,0,S8892304,1       
8892304_2       ,,Furnes,,51.0738700,2.66994000,,,0,S8892304,2       
8892304,,Furnes,,51.0738700,2.66994000,,,0,S8892304,
S8892320,,Coxyde,,51.0792000,2.65277300,,,1,,
8892320_1       ,,Coxyde,,51.0792000,2.65277300,,,0,S8892320,1       
8892320,,Coxyde,,51.0792000,2.65277300,,,0,S8892320,
S8892338,,La Panne,,51.0774000,2.60196600,,,1,,
8892338_1       ,,La Panne,,51.0774000,2.60196600,,,0,S8892338,1       
8892338_3       ,,La Panne,,51.0774000,2.60196600,,,0,S8892338,3       
8892338_2       ,,La Panne,,51.0774000,2.60196600,,,0,S8892338,2       
8892338,,La Panne,,51.0774000,2.60196600,,,0,S8892338,
S8892403,,Kortemark,,51.0252500,3.04345600,,,1,,
8892403_1       ,,Kortemark,,51.0252500,3.04345600,,,0,S8892403,1       
8892403_2       ,,Kortemark,,51.0252500,3.04345600,,,0,S8892403,2       
8892403,,Kortemark,,51.0252500,3.04345600,,,0,S8892403,
S8892452,,Dixmude,,51.0327200,2.86894700,,,1,,
8892452_1       ,,Dixmude,,51.0327200,2.86894700,,,0,S8892452,1       
8892452_2       ,,Dixmude,,51.0327200,2.86894700,,,0,S8892452,2       
8892452,,Dixmude,,51.0327200,2.86894700,,,0,S8892452,
S8892601,,Audenarde,,50.8501200,3.60038800,,,1,,
8892601_2       ,,Audenarde,,50.8501200,3.60038800,,,0,S8892601,2       
8892601_5       ,,Audenarde,,50.8501200,3.60038800,,,0,S8892601,5       
8892601_1       ,,Audenarde,,50.8501200,3.60038800,,,0,S8892601,1       
8892601_3       ,,Audenarde,,50.8501200,3.60038800,,,0,S8892601,3       
8892601_4       ,,Audenarde,,50.8501200,3.60038800,,,0,S8892601,4       
8892601,,Audenarde,,50.8501200,3.60038800,,,0,S8892601,
S8892627,,Eine,,50.8704300,3.62377700,,,1,,
8892627_1       ,,Eine,,50.8704300,3.62377700,,,0,S8892627,1       
8892627,,Eine,,50.8704300,3.62377700,,,0,S8892627,
S8892635,,Zingem,,50.9080300,3.64638100,,,1,,
8892635_2       ,,Zingem,,50.9080300,3.64638100,,,0,S8892635,2       
8892635_1       ,,Zingem,,50.9080300,3.64638100,,,0,S8892635,1       
8892635,,Zingem,,50.9080300,3.64638100,,,0,S8892635,
S8892643,,Gavere-Asper,,50.9300200,3.63972800,,,1,,
8892643_2       ,,Gavere-Asper,,50.9300200,3.63972800,,,0,S8892643,2       
8892643_1       ,,Gavere-Asper,,50.9300200,3.63972800,,,0,S8892643,1       
8892643,,Gavere-Asper,,50.9300200,3.63972800,,,0,S8892643,
S8892650,,Eke-Nazareth,,50.9607700,3.62783600,,,1,,
8892650_1       ,,Eke-Nazareth,,50.9607700,3.62783600,,,0,S8892650,1       
8892650,,Eke-Nazareth,,50.9607700,3.62783600,,,0,S8892650,
S8892692,,Sint-Denijs-Boekel,,50.8743000,3.69840000,,,1,,
8892692_1       ,,Sint-Denijs-Boekel,,50.8743000,3.69840000,,,0,S8892692,1       
8892692_2       ,,Sint-Denijs-Boekel,,50.8743000,3.69840000,,,0,S8892692,2       
8892692,,Sint-Denijs-Boekel,,50.8743000,3.69840000,,,0,S8892692,
S8892734,,Anzegem,,50.8263900,3.49501300,,,1,,
8892734_2       ,,Anzegem,,50.8263900,3.49501300,,,0,S8892734,2       
8892734_1       ,,Anzegem,,50.8263900,3.49501300,,,0,S8892734,1       
8892734,,Anzegem,,50.8263900,3.49501300,,,0,S8892734,
S8892908,,Renaix,,50.7425100,3.60255000,,,1,,
8892908_1       ,,Renaix,,50.7425100,3.60255000,,,0,S8892908,1       
8892908_2       ,,Renaix,,50.7425100,3.60255000,,,0,S8892908,2       
8892908,,Renaix,,50.7425100,3.60255000,,,0,S8892908,
S8893013,,Merelbeke,,51.0175300,3.76889000,,,1,,
8893013_2       ,,Merelbeke,,51.0175300,3.76889000,,,0,S8893013,2       
8893013_1       ,,Merelbeke,,51.0175300,3.76889000,,,0,S8893013,1       
8893013_3       ,,Merelbeke,,51.0175300,3.76889000,,,0,S8893013,3       
8893013_4       ,,Merelbeke,,51.0175300,3.76889000,,,0,S8893013,4       
8893013,,Merelbeke,,51.0175300,3.76889000,,,0,S8893013,
S8893039,,Melle,,51.0028100,3.79709000,,,1,,
8893039_1       ,,Melle,,51.0028100,3.79709000,,,0,S8893039,1       
8893039_2       ,,Melle,,51.0028100,3.79709000,,,0,S8893039,2       
8893039,,Melle,,51.0028100,3.79709000,,,0,S8893039,
S8893047,,Gontrode,,50.9802000,3.80167100,,,1,,
8893047_1       ,,Gontrode,,50.9802000,3.80167100,,,0,S8893047,1       
8893047_2       ,,Gontrode,,50.9802000,3.80167100,,,0,S8893047,2       
8893047,,Gontrode,,50.9802000,3.80167100,,,0,S8893047,
S8893054,,Landskouter,,50.9705500,3.79114800,,,1,,
8893054_1       ,,Landskouter,,50.9705500,3.79114800,,,0,S8893054,1       
8893054_2       ,,Landskouter,,50.9705500,3.79114800,,,0,S8893054,2       
8893054,,Landskouter,,50.9705500,3.79114800,,,0,S8893054,
S8893062,,Moortsele,,50.9535200,3.78134000,,,1,,
8893062_1       ,,Moortsele,,50.9535200,3.78134000,,,0,S8893062,1       
8893062_2       ,,Moortsele,,50.9535200,3.78134000,,,0,S8893062,2       
8893062,,Moortsele,,50.9535200,3.78134000,,,0,S8893062,
S8893070,,Scheldewindeke,,50.9370700,3.77784400,,,1,,
8893070_1       ,,Scheldewindeke,,50.9370700,3.77784400,,,0,S8893070,1       
8893070_2       ,,Scheldewindeke,,50.9370700,3.77784400,,,0,S8893070,2       
8893070,,Scheldewindeke,,50.9370700,3.77784400,,,0,S8893070,
S8893120,,Gand-Dampoort,,51.0563700,3.74059000,,,1,,
8893120_2       ,,Gand-Dampoort,,51.0563700,3.74059000,,,0,S8893120,2       
8893120_1       ,,Gand-Dampoort,,51.0563700,3.74059000,,,0,S8893120,1       
8893120,,Gand-Dampoort,,51.0563700,3.74059000,,,0,S8893120,
S8893179,,Gentbrugge,,51.0386400,3.75632600,,,1,,
8893179_2       ,,Gentbrugge,,51.0386400,3.75632600,,,0,S8893179,2       
8893179_1       ,,Gentbrugge,,51.0386400,3.75632600,,,0,S8893179,1       
8893179,,Gentbrugge,,51.0386400,3.75632600,,,0,S8893179,
S8893211,,Wondelgem,,51.0883600,3.71907500,,,1,,
8893211_1       ,,Wondelgem,,51.0883600,3.71907500,,,0,S8893211,1       
8893211_2       ,,Wondelgem,,51.0883600,3.71907500,,,0,S8893211,2       
8893211,,Wondelgem,,51.0883600,3.71907500,,,0,S8893211,
S8893252,,Evergem,,51.1075800,3.70138100,,,1,,
8893252_1       ,,Evergem,,51.1075800,3.70138100,,,0,S8893252,1       
8893252,,Evergem,,51.1075800,3.70138100,,,0,S8893252,
S8893260,,Sleidinge,,51.1266000,3.66752700,,,1,,
8893260_1       ,,Sleidinge,,51.1266000,3.66752700,,,0,S8893260,1       
8893260,,Sleidinge,,51.1266000,3.66752700,,,0,S8893260,
S8893401,,Termonde,,51.0227800,4.10143000,,,1,,
8893401_3       ,,Termonde,,51.0227800,4.10143000,,,0,S8893401,3       
8893401_1       ,,Termonde,,51.0227800,4.10143000,,,0,S8893401,1       
8893401_5       ,,Termonde,,51.0227800,4.10143000,,,0,S8893401,5       
8893401_2       ,,Termonde,,51.0227800,4.10143000,,,0,S8893401,2       
8893401_4       ,,Termonde,,51.0227800,4.10143000,,,0,S8893401,4       
8893401_7       ,,Termonde,,51.0227800,4.10143000,,,0,S8893401,7       
8893401_8       ,,Termonde,,51.0227800,4.10143000,,,0,S8893401,8       
8893401_9       ,,Termonde,,51.0227800,4.10143000,,,0,S8893401,9       
8893401_6       ,,Termonde,,51.0227800,4.10143000,,,0,S8893401,6       
8893401,,Termonde,,51.0227800,4.10143000,,,0,S8893401,
S8893443,,Sint-Gillis,,51.0217000,4.11783100,,,1,,
8893443_1       ,,Sint-Gillis,,51.0217000,4.11783100,,,0,S8893443,1       
8893443_2       ,,Sint-Gillis,,51.0217000,4.11783100,,,0,S8893443,2       
8893443,,Sint-Gillis,,51.0217000,4.11783100,,,0,S8893443,
S8893518,,Oudegem,,51.0152300,4.06447200,,,1,,
8893518_1       ,,Oudegem,,51.0152300,4.06447200,,,0,S8893518,1       
8893518_2       ,,Oudegem,,51.0152300,4.06447200,,,0,S8893518,2       
8893518,,Oudegem,,51.0152300,4.06447200,,,0,S8893518,
S8893526,,Schoonaarde,,51.0031500,4.01109500,,,1,,
8893526_1       ,,Schoonaarde,,51.0031500,4.01109500,,,0,S8893526,1       
8893526_2       ,,Schoonaarde,,51.0031500,4.01109500,,,0,S8893526,2       
8893526,,Schoonaarde,,51.0031500,4.01109500,,,0,S8893526,
S8893534,,Wichelen,,51.0019600,3.96919500,,,1,,
8893534_1       ,,Wichelen,,51.0019600,3.96919500,,,0,S8893534,1       
8893534_2       ,,Wichelen,,51.0019600,3.96919500,,,0,S8893534,2       
8893534,,Wichelen,,51.0019600,3.96919500,,,0,S8893534,
S8893542,,Schellebelle,,51.0031500,3.92137000,,,1,,
8893542_1       ,,Schellebelle,,51.0031500,3.92137000,,,0,S8893542,1       
8893542_2       ,,Schellebelle,,51.0031500,3.92137000,,,0,S8893542,2       
8893542_3       ,,Schellebelle,,51.0031500,3.92137000,,,0,S8893542,3       
8893542,,Schellebelle,,51.0031500,3.92137000,,,0,S8893542,
S8893559,,Wetteren,,51.0016000,3.88188000,,,1,,
8893559_1       ,,Wetteren,,51.0016000,3.88188000,,,0,S8893559,1       
8893559_2       ,,Wetteren,,51.0016000,3.88188000,,,0,S8893559,2       
8893559,,Wetteren,,51.0016000,3.88188000,,,0,S8893559,
S8893567,,Kwatrecht,,50.9917500,3.82959100,,,1,,
8893567_1       ,,Kwatrecht,,50.9917500,3.82959100,,,0,S8893567,1       
8893567_2       ,,Kwatrecht,,50.9917500,3.82959100,,,0,S8893567,2       
8893567,,Kwatrecht,,50.9917500,3.82959100,,,0,S8893567,
S8893583,,Serskamp,,50.9844000,3.95936000,,,1,,
8893583_2       ,,Serskamp,,50.9844000,3.95936000,,,0,S8893583,2       
8893583_1       ,,Serskamp,,50.9844000,3.95936000,,,0,S8893583,1       
8893583,,Serskamp,,50.9844000,3.95936000,,,0,S8893583,
S8893708,,Eeklo,,51.1813300,3.57451800,,,1,,
8893708_1       ,,Eeklo,,51.1813300,3.57451800,,,0,S8893708,1       
8893708_2       ,,Eeklo,,51.1813300,3.57451800,,,0,S8893708,2       
8893708,,Eeklo,,51.1813300,3.57451800,,,0,S8893708,
S8893815,,Waarschoot,,51.1546100,3.61535000,,,1,,
8893815_1       ,,Waarschoot,,51.1546100,3.61535000,,,0,S8893815,1       
8893815,,Waarschoot,,51.1546100,3.61535000,,,0,S8893815,
S8894151,,Beervelde,,51.0875300,3.87938300,,,1,,
8894151_2       ,,Beervelde,,51.0875300,3.87938300,,,0,S8894151,2       
8894151_1       ,,Beervelde,,51.0875300,3.87938300,,,0,S8894151,1       
8894151,,Beervelde,,51.0875300,3.87938300,,,0,S8894151,
S8894201,,Lokeren,,51.1080600,3.98779400,,,1,,
8894201_A       ,,Lokeren,,51.1080600,3.98779400,,,0,S8894201,A       
8894201_2       ,,Lokeren,,51.1080600,3.98779400,,,0,S8894201,2       
8894201_3       ,,Lokeren,,51.1080600,3.98779400,,,0,S8894201,3       
8894201_1       ,,Lokeren,,51.1080600,3.98779400,,,0,S8894201,1       
8894201_4       ,,Lokeren,,51.1080600,3.98779400,,,0,S8894201,4       
8894201,,Lokeren,,51.1080600,3.98779400,,,0,S8894201,
S8894235,,Zele,,51.0732500,4.04200100,,,1,,
8894235_1       ,,Zele,,51.0732500,4.04200100,,,0,S8894235,1       
8894235_2       ,,Zele,,51.0732500,4.04200100,,,0,S8894235,2       
8894235,,Zele,,51.0732500,4.04200100,,,0,S8894235,
S8894425,,Sinaai,,51.1434000,4.06894000,,,1,,
8894425_2       ,,Sinaai,,51.1434000,4.06894000,,,0,S8894425,2       
8894425_1       ,,Sinaai,,51.1434000,4.06894000,,,0,S8894425,1       
8894425,,Sinaai,,51.1434000,4.06894000,,,0,S8894425,
S8894433,,Belsele,,51.1509900,4.08861000,,,1,,
8894433_2       ,,Belsele,,51.1509900,4.08861000,,,0,S8894433,2       
8894433_1       ,,Belsele,,51.1509900,4.08861000,,,0,S8894433,1       
8894433,,Belsele,,51.1509900,4.08861000,,,0,S8894433,
S8894508,,Saint-Nicolas,,51.1714700,4.14296300,,,1,,
8894508_4       ,,Saint-Nicolas,,51.1714700,4.14296300,,,0,S8894508,4       
8894508_5       ,,Saint-Nicolas,,51.1714700,4.14296300,,,0,S8894508,5       
8894508_1       ,,Saint-Nicolas,,51.1714700,4.14296300,,,0,S8894508,1       
8894508_A       ,,Saint-Nicolas,,51.1714700,4.14296300,,,0,S8894508,A       
8894508_2       ,,Saint-Nicolas,,51.1714700,4.14296300,,,0,S8894508,2       
8894508_3       ,,Saint-Nicolas,,51.1714700,4.14296300,,,0,S8894508,3       
8894508,,Saint-Nicolas,,51.1714700,4.14296300,,,0,S8894508,
S8894672,,Tamise,,51.1260800,4.22134900,,,1,,
8894672_1       ,,Tamise,,51.1260800,4.22134900,,,0,S8894672,1       
8894672_2       ,,Tamise,,51.1260800,4.22134900,,,0,S8894672,2       
8894672,,Tamise,,51.1260800,4.22134900,,,0,S8894672,
S8894714,,Nieuwkerken-Waas,,51.1856100,4.18590400,,,1,,
8894714_2       ,,Nieuwkerken-Waas,,51.1856100,4.18590400,,,0,S8894714,2       
8894714_1       ,,Nieuwkerken-Waas,,51.1856100,4.18590400,,,0,S8894714,1       
8894714,,Nieuwkerken-Waas,,51.1856100,4.18590400,,,0,S8894714,
S8894748,,Beveren,,51.2083400,4.25952500,,,1,,
8894748_1       ,,Beveren,,51.2083400,4.25952500,,,0,S8894748,1       
8894748_2       ,,Beveren,,51.2083400,4.25952500,,,0,S8894748,2       
8894748,,Beveren,,51.2083400,4.25952500,,,0,S8894748,
S8894755,,Melsele,,51.2107100,4.28676700,,,1,,
8894755_2       ,,Melsele,,51.2107100,4.28676700,,,0,S8894755,2       
8894755_1       ,,Melsele,,51.2107100,4.28676700,,,0,S8894755,1       
8894755,,Melsele,,51.2107100,4.28676700,,,0,S8894755,
S8894821,,Zwijndrecht,,51.2141100,4.32977600,,,1,,
8894821_2       ,,Zwijndrecht,,51.2141100,4.32977600,,,0,S8894821,2       
8894821_1       ,,Zwijndrecht,,51.2141100,4.32977600,,,0,S8894821,1       
8894821,,Zwijndrecht,,51.2141100,4.32977600,,,0,S8894821,
S8895000,,Alost,,50.9428200,4.03964900,,,1,,
8895000_2       ,,Alost,,50.9428200,4.03964900,,,0,S8895000,2       
8895000_3       ,,Alost,,50.9428200,4.03964900,,,0,S8895000,3       
8895000_5       ,,Alost,,50.9428200,4.03964900,,,0,S8895000,5       
8895000_4       ,,Alost,,50.9428200,4.03964900,,,0,S8895000,4       
8895000_6       ,,Alost,,50.9428200,4.03964900,,,0,S8895000,6       
8895000_1       ,,Alost,,50.9428200,4.03964900,,,0,S8895000,1       
8895000_7       ,,Alost,,50.9428200,4.03964900,,,0,S8895000,7       
8895000,,Alost,,50.9428200,4.03964900,,,0,S8895000,
S8895067,,Lede,,50.9709000,3.98498000,,,1,,
8895067_2       ,,Lede,,50.9709000,3.98498000,,,0,S8895067,2       
8895067_1       ,,Lede,,50.9709000,3.98498000,,,0,S8895067,1       
8895067,,Lede,,50.9709000,3.98498000,,,0,S8895067,
S8895091,,Erembodegem,,50.9196200,4.05545100,,,1,,
8895091_2       ,,Erembodegem,,50.9196200,4.05545100,,,0,S8895091,2       
8895091_1       ,,Erembodegem,,50.9196200,4.05545100,,,0,S8895091,1       
8895091,,Erembodegem,,50.9196200,4.05545100,,,0,S8895091,
S8895125,,Alost Kerrebroek,,50.9483800,4.02441200,,,1,,
8895125_1       ,,Alost Kerrebroek,,50.9483800,4.02441200,,,0,S8895125,1       
8895125,,Alost Kerrebroek,,50.9483800,4.02441200,,,0,S8895125,
S8895208,,Zottegem,,50.8691000,3.81441000,,,1,,
8895208_4       ,,Zottegem,,50.8691000,3.81441000,,,0,S8895208,4       
8895208_3       ,,Zottegem,,50.8691000,3.81441000,,,0,S8895208,3       
8895208_1       ,,Zottegem,,50.8691000,3.81441000,,,0,S8895208,1       
8895208_2       ,,Zottegem,,50.8691000,3.81441000,,,0,S8895208,2       
8895208_7       ,,Zottegem,,50.8691000,3.81441000,,,0,S8895208,7       
8895208_6       ,,Zottegem,,50.8691000,3.81441000,,,0,S8895208,6       
8895208_5       ,,Zottegem,,50.8691000,3.81441000,,,0,S8895208,5       
8895208,,Zottegem,,50.8691000,3.81441000,,,0,S8895208,
S8895232,,Munkzwalm,,50.8756800,3.73324200,,,1,,
8895232_1       ,,Munkzwalm,,50.8756800,3.73324200,,,0,S8895232,1       
8895232_2       ,,Munkzwalm,,50.8756800,3.73324200,,,0,S8895232,2       
8895232,,Munkzwalm,,50.8756800,3.73324200,,,0,S8895232,
S8895240,,Balegem-Zuid,,50.9005100,3.80587000,,,1,,
8895240_1       ,,Balegem-Zuid,,50.9005100,3.80587000,,,0,S8895240,1       
8895240_2       ,,Balegem-Zuid,,50.9005100,3.80587000,,,0,S8895240,2       
8895240,,Balegem-Zuid,,50.9005100,3.80587000,,,0,S8895240,
S8895257,,Balegem-Dorp,,50.9196100,3.79142300,,,1,,
8895257_1       ,,Balegem-Dorp,,50.9196100,3.79142300,,,0,S8895257,1       
8895257_2       ,,Balegem-Dorp,,50.9196100,3.79142300,,,0,S8895257,2       
8895257,,Balegem-Dorp,,50.9196100,3.79142300,,,0,S8895257,
S8895422,,Hillegem,,50.8913000,3.85747000,,,1,,
8895422_1       ,,Hillegem,,50.8913000,3.85747000,,,0,S8895422,1       
8895422_2       ,,Hillegem,,50.8913000,3.85747000,,,0,S8895422,2       
8895422,,Hillegem,,50.8913000,3.85747000,,,0,S8895422,
S8895430,,Herzele,,50.8972200,3.88061600,,,1,,
8895430_1       ,,Herzele,,50.8972200,3.88061600,,,0,S8895430,1       
8895430_2       ,,Herzele,,50.8972200,3.88061600,,,0,S8895430,2       
8895430,,Herzele,,50.8972200,3.88061600,,,0,S8895430,
S8895448,,Terhagen,,50.9016500,3.89665700,,,1,,
8895448_2       ,,Terhagen,,50.9016500,3.89665700,,,0,S8895448,2       
8895448_1       ,,Terhagen,,50.9016500,3.89665700,,,0,S8895448,1       
8895448,,Terhagen,,50.9016500,3.89665700,,,0,S8895448,
S8895455,,Burst,,50.9071900,3.92241800,,,1,,
8895455_1       ,,Burst,,50.9071900,3.92241800,,,0,S8895455,1       
8895455_2       ,,Burst,,50.9071900,3.92241800,,,0,S8895455,2       
8895455_3       ,,Burst,,50.9071900,3.92241800,,,0,S8895455,3       
8895455,,Burst,,50.9071900,3.92241800,,,0,S8895455,
S8895463,,Bambrugge,,50.9137700,3.93571500,,,1,,
8895463_1       ,,Bambrugge,,50.9137700,3.93571500,,,0,S8895463,1       
8895463,,Bambrugge,,50.9137700,3.93571500,,,0,S8895463,
S8895471,,Erpe-Mere,,50.9286000,3.96246000,,,1,,
8895471_1       ,,Erpe-Mere,,50.9286000,3.96246000,,,0,S8895471,1       
8895471,,Erpe-Mere,,50.9286000,3.96246000,,,0,S8895471,
S8895489,,Vijfhuizen,,50.9432500,3.98125000,,,1,,
8895489_1       ,,Vijfhuizen,,50.9432500,3.98125000,,,0,S8895489,1       
8895489,,Vijfhuizen,,50.9432500,3.98125000,,,0,S8895489,
S8895505,,Grammont,,50.7711300,3.87232600,,,1,,
8895505_5       ,,Grammont,,50.7711300,3.87232600,,,0,S8895505,5       
8895505_4       ,,Grammont,,50.7711300,3.87232600,,,0,S8895505,4       
8895505_1       ,,Grammont,,50.7711300,3.87232600,,,0,S8895505,1       
8895505_2       ,,Grammont,,50.7711300,3.87232600,,,0,S8895505,2       
8895505_3       ,,Grammont,,50.7711300,3.87232600,,,0,S8895505,3       
8895505_A       ,,Grammont,,50.7711300,3.87232600,,,0,S8895505,A       
8895505,,Grammont,,50.7711300,3.87232600,,,0,S8895505,
S8895570,,Lierde,,50.8162400,3.82656100,,,1,,
8895570_2       ,,Lierde,,50.8162400,3.82656100,,,0,S8895570,2       
8895570_1       ,,Lierde,,50.8162400,3.82656100,,,0,S8895570,1       
8895570,,Lierde,,50.8162400,3.82656100,,,0,S8895570,
S8895612,,Viane-Moerbeke,,50.7519800,3.91734000,,,1,,
8895612_2       ,,Viane-Moerbeke,,50.7519800,3.91734000,,,0,S8895612,2       
8895612_1       ,,Viane-Moerbeke,,50.7519800,3.91734000,,,0,S8895612,1       
8895612,,Viane-Moerbeke,,50.7519800,3.91734000,,,0,S8895612,
S8895620,,Gammerages,,50.7439200,3.96572600,,,1,,
8895620_1       ,,Gammerages,,50.7439200,3.96572600,,,0,S8895620,1       
8895620_2       ,,Gammerages,,50.7439200,3.96572600,,,0,S8895620,2       
8895620,,Gammerages,,50.7439200,3.96572600,,,0,S8895620,
S8895638,,Tollembeek,,50.7355200,3.99282600,,,1,,
8895638_1       ,,Tollembeek,,50.7355200,3.99282600,,,0,S8895638,1       
8895638_2       ,,Tollembeek,,50.7355200,3.99282600,,,0,S8895638,2       
8895638,,Tollembeek,,50.7355200,3.99282600,,,0,S8895638,
S8895646,,Herne,,50.7237100,4.01457800,,,1,,
8895646_1       ,,Herne,,50.7237100,4.01457800,,,0,S8895646,1       
8895646_2       ,,Herne,,50.7237100,4.01457800,,,0,S8895646,2       
8895646,,Herne,,50.7237100,4.01457800,,,0,S8895646,
S8895711,,Schendelbeke,,50.7978500,3.89928500,,,1,,
8895711_2       ,,Schendelbeke,,50.7978500,3.89928500,,,0,S8895711,2       
8895711_1       ,,Schendelbeke,,50.7978500,3.89928500,,,0,S8895711,1       
8895711,,Schendelbeke,,50.7978500,3.89928500,,,0,S8895711,
S8895729,,Idegem,,50.8018800,3.92155600,,,1,,
8895729_1       ,,Idegem,,50.8018800,3.92155600,,,0,S8895729,1       
8895729_2       ,,Idegem,,50.8018800,3.92155600,,,0,S8895729,2       
8895729,,Idegem,,50.8018800,3.92155600,,,0,S8895729,
S8895737,,Zandbergen,,50.8069900,3.95765200,,,1,,
8895737_1       ,,Zandbergen,,50.8069900,3.95765200,,,0,S8895737,1       
8895737_2       ,,Zandbergen,,50.8069900,3.95765200,,,0,S8895737,2       
8895737,,Zandbergen,,50.8069900,3.95765200,,,0,S8895737,
S8895745,,Appelterre,,50.8130700,3.97210700,,,1,,
8895745_2       ,,Appelterre,,50.8130700,3.97210700,,,0,S8895745,2       
8895745_1       ,,Appelterre,,50.8130700,3.97210700,,,0,S8895745,1       
8895745,,Appelterre,,50.8130700,3.97210700,,,0,S8895745,
S8895752,,Eichem,,50.8239900,3.99374800,,,1,,
8895752_1       ,,Eichem,,50.8239900,3.99374800,,,0,S8895752,1       
8895752_2       ,,Eichem,,50.8239900,3.99374800,,,0,S8895752,2       
8895752,,Eichem,,50.8239900,3.99374800,,,0,S8895752,
S8895760,,Ninove,,50.8395100,4.02613700,,,1,,
8895760_1       ,,Ninove,,50.8395100,4.02613700,,,0,S8895760,1       
8895760_2       ,,Ninove,,50.8395100,4.02613700,,,0,S8895760,2       
8895760,,Ninove,,50.8395100,4.02613700,,,0,S8895760,
S8895778,,Okegem,,50.8577200,4.05455400,,,1,,
8895778_1       ,,Okegem,,50.8577200,4.05455400,,,0,S8895778,1       
8895778_2       ,,Okegem,,50.8577200,4.05455400,,,0,S8895778,2       
8895778,,Okegem,,50.8577200,4.05455400,,,0,S8895778,
S8895802,,Denderleeuw,,50.8919300,4.07183000,,,1,,
8895802_1       ,,Denderleeuw,,50.8919300,4.07183000,,,0,S8895802,1       
8895802_6       ,,Denderleeuw,,50.8919300,4.07183000,,,0,S8895802,6       
8895802_7       ,,Denderleeuw,,50.8919300,4.07183000,,,0,S8895802,7       
8895802_9       ,,Denderleeuw,,50.8919300,4.07183000,,,0,S8895802,9       
8895802_8       ,,Denderleeuw,,50.8919300,4.07183000,,,0,S8895802,8       
8895802_4       ,,Denderleeuw,,50.8919300,4.07183000,,,0,S8895802,4       
8895802_5       ,,Denderleeuw,,50.8919300,4.07183000,,,0,S8895802,5       
8895802_3       ,,Denderleeuw,,50.8919300,4.07183000,,,0,S8895802,3       
8895802,,Denderleeuw,,50.8919300,4.07183000,,,0,S8895802,
S8895836,,Liedekerke,,50.8825300,4.09529000,,,1,,
8895836_3       ,,Liedekerke,,50.8825300,4.09529000,,,0,S8895836,3       
8895836_4       ,,Liedekerke,,50.8825300,4.09529000,,,0,S8895836,4       
8895836_2       ,,Liedekerke,,50.8825300,4.09529000,,,0,S8895836,2       
8895836_1       ,,Liedekerke,,50.8825300,4.09529000,,,0,S8895836,1       
8895836,,Liedekerke,,50.8825300,4.09529000,,,0,S8895836,
S8895844,,Iddergem,,50.8768800,4.06848800,,,1,,
8895844_1       ,,Iddergem,,50.8768800,4.06848800,,,0,S8895844,1       
8895844_2       ,,Iddergem,,50.8768800,4.06848800,,,0,S8895844,2       
8895844,,Iddergem,,50.8768800,4.06848800,,,0,S8895844,
S8895851,,Welle,,50.9032700,4.05061700,,,1,,
8895851_2       ,,Welle,,50.9032700,4.05061700,,,0,S8895851,2       
8895851_1       ,,Welle,,50.9032700,4.05061700,,,0,S8895851,1       
8895851,,Welle,,50.9032700,4.05061700,,,0,S8895851,
S8895869,,Haaltert,,50.9068400,4.02395700,,,1,,
8895869_2       ,,Haaltert,,50.9068400,4.02395700,,,0,S8895869,2       
8895869_1       ,,Haaltert,,50.9068400,4.02395700,,,0,S8895869,1       
8895869,,Haaltert,,50.9068400,4.02395700,,,0,S8895869,
S8895877,,Ede,,50.9110500,3.98752500,,,1,,
8895877_2       ,,Ede,,50.9110500,3.98752500,,,0,S8895877,2       
8895877_1       ,,Ede,,50.9110500,3.98752500,,,0,S8895877,1       
8895877,,Ede,,50.9110500,3.98752500,,,0,S8895877,
S8896008,,Courtrai,,50.8245000,3.26454800,,,1,,
8896008_1       ,,Courtrai,,50.8245000,3.26454800,,,0,S8896008,1       
8896008_2       ,,Courtrai,,50.8245000,3.26454800,,,0,S8896008,2       
8896008_3       ,,Courtrai,,50.8245000,3.26454800,,,0,S8896008,3       
8896008_6       ,,Courtrai,,50.8245000,3.26454800,,,0,S8896008,6       
8896008_5       ,,Courtrai,,50.8245000,3.26454800,,,0,S8896008,5       
8896008_4       ,,Courtrai,,50.8245000,3.26454800,,,0,S8896008,4       
8896008_7       ,,Courtrai,,50.8245000,3.26454800,,,0,S8896008,7       
8896008_8       ,,Courtrai,,50.8245000,3.26454800,,,0,S8896008,8       
8896008,,Courtrai,,50.8245000,3.26454800,,,0,S8896008,
S8896115,,Harelbeke,,50.8558700,3.31400700,,,1,,
8896115_2       ,,Harelbeke,,50.8558700,3.31400700,,,0,S8896115,2       
8896115_1       ,,Harelbeke,,50.8558700,3.31400700,,,0,S8896115,1       
8896115,,Harelbeke,,50.8558700,3.31400700,,,0,S8896115,
S8896149,,Waregem,,50.8924600,3.42551000,,,1,,
8896149_1       ,,Waregem,,50.8924600,3.42551000,,,0,S8896149,1       
8896149_2       ,,Waregem,,50.8924600,3.42551000,,,0,S8896149,2       
8896149_3       ,,Waregem,,50.8924600,3.42551000,,,0,S8896149,3       
8896149,,Waregem,,50.8924600,3.42551000,,,0,S8896149,
S8896230,,Vichte,,50.8336600,3.39162700,,,1,,
8896230_1       ,,Vichte,,50.8336600,3.39162700,,,0,S8896230,1       
8896230_2       ,,Vichte,,50.8336600,3.39162700,,,0,S8896230,2       
8896230,,Vichte,,50.8336600,3.39162700,,,0,S8896230,
S8896305,,Menin,,50.7994900,3.11379000,,,1,,
8896305_1       ,,Menin,,50.7994900,3.11379000,,,0,S8896305,1       
8896305_2       ,,Menin,,50.7994900,3.11379000,,,0,S8896305,2       
8896305,,Menin,,50.7994900,3.11379000,,,0,S8896305,
S8896370,,Wevelgem,,50.8115200,3.18351900,,,1,,
8896370_1       ,,Wevelgem,,50.8115200,3.18351900,,,0,S8896370,1       
8896370_2       ,,Wevelgem,,50.8115200,3.18351900,,,0,S8896370,2       
8896370,,Wevelgem,,50.8115200,3.18351900,,,0,S8896370,
S8896388,,Bissegem,,50.8258500,3.22420800,,,1,,
8896388_1       ,,Bissegem,,50.8258500,3.22420800,,,0,S8896388,1       
8896388_2       ,,Bissegem,,50.8258500,3.22420800,,,0,S8896388,2       
8896388,,Bissegem,,50.8258500,3.22420800,,,0,S8896388,
S8896396,,Wervik,,50.7818600,3.04698000,,,1,,
8896396_1       ,,Wervik,,50.7818600,3.04698000,,,0,S8896396,1       
8896396_2       ,,Wervik,,50.7818600,3.04698000,,,0,S8896396,2       
8896396,,Wervik,,50.7818600,3.04698000,,,0,S8896396,
S8896412,,Comines,,50.7720700,2.99928600,,,1,,
8896412_1       ,,Comines,,50.7720700,2.99928600,,,0,S8896412,1       
8896412_2       ,,Comines,,50.7720700,2.99928600,,,0,S8896412,2       
8896412,,Comines,,50.7720700,2.99928600,,,0,S8896412,
S8896503,,Ypres,,50.8474000,2.87659000,,,1,,
8896503_1       ,,Ypres,,50.8474000,2.87659000,,,0,S8896503,1       
8896503_2       ,,Ypres,,50.8474000,2.87659000,,,0,S8896503,2       
8896503,,Ypres,,50.8474000,2.87659000,,,0,S8896503,
S8896735,,Poperinge,,50.8544500,2.73634500,,,1,,
8896735_1       ,,Poperinge,,50.8544500,2.73634500,,,0,S8896735,1       
8896735_3       ,,Poperinge,,50.8544500,2.73634500,,,0,S8896735,3       
8896735_2       ,,Poperinge,,50.8544500,2.73634500,,,0,S8896735,2       
8896735,,Poperinge,,50.8544500,2.73634500,,,0,S8896735,
S8896800,,Roulers,,50.9490300,3.13041500,,,1,,
8896800_2       ,,Roulers,,50.9490300,3.13041500,,,0,S8896800,2       
8896800_1       ,,Roulers,,50.9490300,3.13041500,,,0,S8896800,1       
8896800_3       ,,Roulers,,50.9490300,3.13041500,,,0,S8896800,3       
8896800,,Roulers,,50.9490300,3.13041500,,,0,S8896800,
S8896909,,Izegem,,50.9211500,3.21208900,,,1,,
8896909_2       ,,Izegem,,50.9211500,3.21208900,,,0,S8896909,2       
8896909_1       ,,Izegem,,50.9211500,3.21208900,,,0,S8896909,1       
8896909,,Izegem,,50.9211500,3.21208900,,,0,S8896909,
S8896925,,Ingelmunster,,50.9143300,3.25541600,,,1,,
8896925_1       ,,Ingelmunster,,50.9143300,3.25541600,,,0,S8896925,1       
8896925_2       ,,Ingelmunster,,50.9143300,3.25541600,,,0,S8896925,2       
8896925,,Ingelmunster,,50.9143300,3.25541600,,,0,S8896925,
